country,zip,primary_city,state_name,state,county,county_code,a,b,latitude,longitude,accuracy,country_name
IT,"67010","Barete","Abruzzi","AB","L'Aquila","AQ","","","42.4505","13.2821","4",Italy
IT,"67012","San Giovanni","Abruzzi","AB","L'Aquila","AQ","","","42.5","13.2667","4",Italy
IT,"67012","Cagnano Amiterno","Abruzzi","AB","L'Aquila","AQ","","","42.4574","13.2279","4",Italy
IT,"67013","Campotosto","Abruzzi","AB","L'Aquila","AQ","","","42.5588","13.368","4",Italy
IT,"67013","Ortolano","Abruzzi","AB","L'Aquila","AQ","","","42.5457","13.3446","3",Italy
IT,"67013","Poggio Cancelli","Abruzzi","AB","L'Aquila","AQ","","","42.55","13.3167","4",Italy
IT,"67013","Mascioni","Abruzzi","AB","L'Aquila","AQ","","","42.5282","13.3492","4",Italy
IT,"67014","Capitignano","Abruzzi","AB","L'Aquila","AQ","","","42.5204","13.3012","4",Italy
IT,"67015","Marana Di Montereale","Abruzzi","AB","L'Aquila","AQ","","","42.5","13.2167","4",Italy
IT,"67015","Aringo","Abruzzi","AB","L'Aquila","AQ","","","42.55","13.2667","4",Italy
IT,"67015","Marana","Abruzzi","AB","L'Aquila","AQ","","","42.5","13.2167","4",Italy
IT,"67015","Cesaproba","Abruzzi","AB","L'Aquila","AQ","","","42.4833","13.1833","4",Italy
IT,"67015","Ville Di Fano","Abruzzi","AB","L'Aquila","AQ","","","42.511","13.2262","3",Italy
IT,"67015","San Giovanni Paganica","Abruzzi","AB","L'Aquila","AQ","","","42.511","13.2262","3",Italy
IT,"67015","Montereale","Abruzzi","AB","L'Aquila","AQ","","","42.5218","13.2476","4",Italy
IT,"67017","Marruci","Abruzzi","AB","L'Aquila","AQ","","","42.4244","13.3142","3",Italy
IT,"67017","Pizzoli","Abruzzi","AB","L'Aquila","AQ","","","42.4321","13.3117","4",Italy
IT,"67017","San Lorenzo Di Pizzoli","Abruzzi","AB","L'Aquila","AQ","","","42.4167","13.3167","4",Italy
IT,"67019","Vigliano","Abruzzi","AB","L'Aquila","AQ","","","42.3333","13.2167","4",Italy
IT,"67019","Sella Di Corno","Abruzzi","AB","L'Aquila","AQ","","","42.3532","13.2358","3",Italy
IT,"67019","Scoppito","Abruzzi","AB","L'Aquila","AQ","","","42.373","13.2549","4",Italy
IT,"67020","San Pio Delle Camere","Abruzzi","AB","L'Aquila","AQ","","","42.2862","13.6577","4",Italy
IT,"67020","Fagnano Alto","Abruzzi","AB","L'Aquila","AQ","","","42.2534","13.5745","4",Italy
IT,"67020","Prata D'Ansidonia","Abruzzi","AB","L'Aquila","AQ","","","42.2779","13.6083","4",Italy
IT,"67020","Castelnuovo","Abruzzi","AB","L'Aquila","AQ","","","42.0833","13.45","4",Italy
IT,"67020","Roccapreturo","Abruzzi","AB","L'Aquila","AQ","","","42.1833","13.6833","4",Italy
IT,"67020","Carrufo","Abruzzi","AB","L'Aquila","AQ","","","42.2353","13.6578","3",Italy
IT,"67020","Castelvecchio Calvisio","Abruzzi","AB","L'Aquila","AQ","","","42.3113","13.6872","4",Italy
IT,"67020","Beffi","Abruzzi","AB","L'Aquila","AQ","","","42.1833","13.6667","4",Italy
IT,"67020","Goriano Valli","Abruzzi","AB","L'Aquila","AQ","","","42.2353","13.6578","3",Italy
IT,"67020","Sant'Eusanio Forconese","Abruzzi","AB","L'Aquila","AQ","","","42.2878","13.5243","4",Italy
IT,"67020","Collepietro","Abruzzi","AB","L'Aquila","AQ","","","42.2217","13.7793","4",Italy
IT,"67020","Carapelle Calvisio","Abruzzi","AB","L'Aquila","AQ","","","42.2993","13.6847","4",Italy
IT,"67020","San Benedetto In Perillis","Abruzzi","AB","L'Aquila","AQ","","","42.1843","13.7708","4",Italy
IT,"67020","Caporciano","Abruzzi","AB","L'Aquila","AQ","","","42.2508","13.6729","4",Italy
IT,"67020","Navelli","Abruzzi","AB","L'Aquila","AQ","","","42.2377","13.7286","4",Italy
IT,"67020","Santo Stefano Di Sessanio","Abruzzi","AB","L'Aquila","AQ","","","42.3447","13.6442","4",Italy
IT,"67020","Tione Degli Abruzzi","Abruzzi","AB","L'Aquila","AQ","","","42.2039","13.6357","4",Italy
IT,"67020","Castelnuovo Di San Pio Delle Camere","Abruzzi","AB","L'Aquila","AQ","","","42.2353","13.6578","3",Italy
IT,"67020","Molina Aterno","Abruzzi","AB","L'Aquila","AQ","","","42.149","13.7354","4",Italy
IT,"67020","Fossa","Abruzzi","AB","L'Aquila","AQ","","","42.2982","13.4885","4",Italy
IT,"67020","Acciano","Abruzzi","AB","L'Aquila","AQ","","","42.1765","13.7171","4",Italy
IT,"67020","Castel Di Ieri","Abruzzi","AB","L'Aquila","AQ","","","42.1152","13.7426","4",Italy
IT,"67020","Tussio","Abruzzi","AB","L'Aquila","AQ","","","42.25","13.6333","4",Italy
IT,"67020","Calascio","Abruzzi","AB","L'Aquila","AQ","","","42.3264","13.6972","4",Italy
IT,"67020","Villa Santa Lucia Degli Abruzzi","Abruzzi","AB","L'Aquila","AQ","","","42.3331","13.777","4",Italy
IT,"67020","Villa Sant'Angelo","Abruzzi","AB","L'Aquila","AQ","","","42.2704","13.5371","4",Italy
IT,"67020","Civitaretenga","Abruzzi","AB","L'Aquila","AQ","","","42.2333","13.7","4",Italy
IT,"67020","Fontecchio","Abruzzi","AB","L'Aquila","AQ","","","42.2296","13.6058","4",Italy
IT,"67020","Gagliano Aterno","Abruzzi","AB","L'Aquila","AQ","","","42.1265","13.7","4",Italy
IT,"67021","Picenze","Abruzzi","AB","L'Aquila","AQ","","","42.3206","13.5411","4",Italy
IT,"67021","Barisciano","Abruzzi","AB","L'Aquila","AQ","","","42.3244","13.5924","4",Italy
IT,"67022","Capestrano","Abruzzi","AB","L'Aquila","AQ","","","42.2684","13.7658","4",Italy
IT,"67023","Castel Del Monte","Abruzzi","AB","L'Aquila","AQ","","","42.3657","13.7279","4",Italy
IT,"67024","Castelvecchio Subequo","Abruzzi","AB","L'Aquila","AQ","","","42.1302","13.7278","4",Italy
IT,"67025","Ofena","Abruzzi","AB","L'Aquila","AQ","","","42.3258","13.7587","4",Italy
IT,"67026","Poggio Picenze","Abruzzi","AB","L'Aquila","AQ","","","42.3206","13.5411","4",Italy
IT,"67027","Raiano","Abruzzi","AB","L'Aquila","AQ","","","42.1023","13.8146","4",Italy
IT,"67028","San Demetrio Ne' Vestini","Abruzzi","AB","L'Aquila","AQ","","","42.2408","13.6644","1",Italy
IT,"67029","Secinaro","Abruzzi","AB","L'Aquila","AQ","","","42.1529","13.6807","4",Italy
IT,"67030","Introdacqua","Abruzzi","AB","L'Aquila","AQ","","","42.0074","13.8983","4",Italy
IT,"67030","Cansano","Abruzzi","AB","L'Aquila","AQ","","","42.0044","14.0119","4",Italy
IT,"67030","Campo Di Giove","Abruzzi","AB","L'Aquila","AQ","","","42.0101","14.0394","4",Italy
IT,"67030","Rocca Pia","Abruzzi","AB","L'Aquila","AQ","","","41.9334","13.977","4",Italy
IT,"67030","Ateleta","Abruzzi","AB","L'Aquila","AQ","","","41.8554","14.1975","4",Italy
IT,"67030","Villetta Barrea","Abruzzi","AB","L'Aquila","AQ","","","41.7758","13.9385","4",Italy
IT,"67030","Prezza","Abruzzi","AB","L'Aquila","AQ","","","42.0593","13.8346","4",Italy
IT,"67030","Goriano Sicoli","Abruzzi","AB","L'Aquila","AQ","","","42.0808","13.7748","4",Italy
IT,"67030","Cocullo","Abruzzi","AB","L'Aquila","AQ","","","42.0328","13.775","4",Italy
IT,"67030","Scontrone","Abruzzi","AB","L'Aquila","AQ","","","41.7473","14.0394","4",Italy
IT,"67030","Bugnara","Abruzzi","AB","L'Aquila","AQ","","","42.0238","13.8614","4",Italy
IT,"67030","Castrovalva","Abruzzi","AB","L'Aquila","AQ","","","41.953","13.9184","3",Italy
IT,"67030","Campo Di Fano","Abruzzi","AB","L'Aquila","AQ","","","41.953","13.9184","3",Italy
IT,"67030","Pacentro","Abruzzi","AB","L'Aquila","AQ","","","42.0504","13.9915","4",Italy
IT,"67030","Vittorito","Abruzzi","AB","L'Aquila","AQ","","","42.127","13.8167","4",Italy
IT,"67030","Barrea","Abruzzi","AB","L'Aquila","AQ","","","41.7559","13.9925","4",Italy
IT,"67030","Civitella Alfedena","Abruzzi","AB","L'Aquila","AQ","","","41.7653","13.9427","4",Italy
IT,"67030","Opi","Abruzzi","AB","L'Aquila","AQ","","","41.7769","13.8292","4",Italy
IT,"67030","Alfedena","Abruzzi","AB","L'Aquila","AQ","","","41.7363","14.0385","4",Italy
IT,"67030","Corfinio","Abruzzi","AB","L'Aquila","AQ","","","42.1237","13.8415","4",Italy
IT,"67030","Anversa Degli Abruzzi","Abruzzi","AB","L'Aquila","AQ","","","41.9938","13.8039","4",Italy
IT,"67030","Roccacasale","Abruzzi","AB","L'Aquila","AQ","","","42.1229","13.8881","4",Italy
IT,"67030","Torre Dei Nolfi","Abruzzi","AB","L'Aquila","AQ","","","42.0469","13.8703","4",Italy
IT,"67030","Villalago","Abruzzi","AB","L'Aquila","AQ","","","41.9347","13.842","4",Italy
IT,"67030","Villa Scontrone","Abruzzi","AB","L'Aquila","AQ","","","41.953","13.9184","3",Italy
IT,"67031","Castel Di Sangro","Abruzzi","AB","L'Aquila","AQ","","","41.7737","14.1035","4",Italy
IT,"67031","Roccacinquemiglia","Abruzzi","AB","L'Aquila","AQ","","","41.7737","14.1035","3",Italy
IT,"67032","Pescasseroli","Abruzzi","AB","L'Aquila","AQ","","","41.804","13.7889","4",Italy
IT,"67033","Pescocostanzo","Abruzzi","AB","L'Aquila","AQ","","","41.8863","14.0656","4",Italy
IT,"67034","Pettorano Sul Gizio","Abruzzi","AB","L'Aquila","AQ","","","41.9745","13.9587","4",Italy
IT,"67035","Pratola Peligna","Abruzzi","AB","L'Aquila","AQ","","","42.0983","13.8739","4",Italy
IT,"67035","Bagnaturo","Abruzzi","AB","L'Aquila","AQ","","","42.0983","13.8739","3",Italy
IT,"67036","Rivisondoli","Abruzzi","AB","L'Aquila","AQ","","","41.8702","14.0667","4",Italy
IT,"67037","Pietransieri","Abruzzi","AB","L'Aquila","AQ","","","41.8467","14.1191","4",Italy
IT,"67037","Roccaraso","Abruzzi","AB","L'Aquila","AQ","","","41.8501","14.0784","4",Italy
IT,"67037","Aremogna","Abruzzi","AB","L'Aquila","AQ","","","41.824","14.0342","4",Italy
IT,"67038","Frattura Di Scanno","Abruzzi","AB","L'Aquila","AQ","","","41.9333","13.8667","4",Italy
IT,"67038","Scanno","Abruzzi","AB","L'Aquila","AQ","","","41.901","13.8836","4",Italy
IT,"67038","Frattura","Abruzzi","AB","L'Aquila","AQ","","","41.9333","13.8667","4",Italy
IT,"67039","Cavate","Abruzzi","AB","L'Aquila","AQ","","","42.0479","13.9291","3",Italy
IT,"67039","Albanese","Abruzzi","AB","L'Aquila","AQ","","","42.0479","13.9291","3",Italy
IT,"67039","Abazia Di Sulmona","Abruzzi","AB","L'Aquila","AQ","","","42.0479","13.9291","3",Italy
IT,"67039","Torrone Di Sulmona","Abruzzi","AB","L'Aquila","AQ","","","42.0479","13.9291","3",Italy
IT,"67039","Torrone","Abruzzi","AB","L'Aquila","AQ","","","42.0479","13.9291","3",Italy
IT,"67039","Marane","Abruzzi","AB","L'Aquila","AQ","","","42.0479","13.9291","3",Italy
IT,"67039","Sulmona","Abruzzi","AB","L'Aquila","AQ","","","42.0479","13.9291","4",Italy
IT,"67039","Arabona","Abruzzi","AB","L'Aquila","AQ","","","42.0479","13.9291","3",Italy
IT,"67040","Ocre","Abruzzi","AB","L'Aquila","AQ","","","42.2859","13.4753","4",Italy
IT,"67040","Collarmele","Abruzzi","AB","L'Aquila","AQ","","","42.059","13.6257","4",Italy
IT,"67040","San Martino D'Ocre","Abruzzi","AB","L'Aquila","AQ","","","42.1725","13.5505","3",Italy
IT,"67041","Aielli Stazione","Abruzzi","AB","L'Aquila","AQ","","","42.0808","13.5906","3",Italy
IT,"67041","Aielli","Abruzzi","AB","L'Aquila","AQ","","","42.0808","13.5906","4",Italy
IT,"67043","Celano","Abruzzi","AB","L'Aquila","AQ","","","42.0855","13.5398","4",Italy
IT,"67044","Cerchio","Abruzzi","AB","L'Aquila","AQ","","","42.0609","13.6017","4",Italy
IT,"67045","Lucoli","Abruzzi","AB","L'Aquila","AQ","","","42.2909","13.338","4",Italy
IT,"67045","Ville Di Lucoli","Abruzzi","AB","L'Aquila","AQ","","","42.2636","13.3682","3",Italy
IT,"67045","Casamaina","Abruzzi","AB","L'Aquila","AQ","","","42.25","13.3833","4",Italy
IT,"67045","Casamaina Di Lucoli","Abruzzi","AB","L'Aquila","AQ","","","42.25","13.3833","4",Italy
IT,"67046","Ovindoli","Abruzzi","AB","L'Aquila","AQ","","","42.137","13.5161","4",Italy
IT,"67046","Santo Iona","Abruzzi","AB","L'Aquila","AQ","","","42.1268","13.508","3",Italy
IT,"67046","San Potito","Abruzzi","AB","L'Aquila","AQ","","","42.1167","13.5","4",Italy
IT,"67047","Rocca Di Cambio","Abruzzi","AB","L'Aquila","AQ","","","42.2361","13.489","4",Italy
IT,"67048","Rocca Di Mezzo","Abruzzi","AB","L'Aquila","AQ","","","42.2047","13.5193","4",Italy
IT,"67048","Rovere","Abruzzi","AB","L'Aquila","AQ","","","42.1667","13.5167","4",Italy
IT,"67048","Rovere Di Rocca Di Mezzo","Abruzzi","AB","L'Aquila","AQ","","","42.1667","13.5167","4",Italy
IT,"67049","Rocca Santo Stefano","Abruzzi","AB","L'Aquila","AQ","","","42.2987","13.2775","3",Italy
IT,"67049","Rocca Santo Stefano Di Tornimparte","Abruzzi","AB","L'Aquila","AQ","","","42.2987","13.2775","3",Italy
IT,"67049","San Nicola Di Tornimparte","Abruzzi","AB","L'Aquila","AQ","","","42.3","13.2667","4",Italy
IT,"67049","Tornimparte","Abruzzi","AB","L'Aquila","AQ","","","42.2994","13.2766","4",Italy
IT,"67049","San Nicola","Abruzzi","AB","L'Aquila","AQ","","","42.3","13.2667","4",Italy
IT,"67049","Villagrande","Abruzzi","AB","L'Aquila","AQ","","","42.2953","13.3","4",Italy
IT,"67050","Civita D'Antino","Abruzzi","AB","L'Aquila","AQ","","","41.8857","13.4715","4",Italy
IT,"67050","Villavallelonga","Abruzzi","AB","L'Aquila","AQ","","","41.8714","13.6212","4",Italy
IT,"67050","Rendinara","Abruzzi","AB","L'Aquila","AQ","","","41.8333","13.4667","4",Italy
IT,"67050","Carrito","Abruzzi","AB","L'Aquila","AQ","","","42.0167","13.7167","4",Italy
IT,"67050","San Vincenzo Vecchio","Abruzzi","AB","L'Aquila","AQ","","","41.8445","13.5354","4",Italy
IT,"67050","Albe","Abruzzi","AB","L'Aquila","AQ","","","42.0667","13.4","4",Italy
IT,"67050","Castronovo","Abruzzi","AB","L'Aquila","AQ","","","41.9464","13.511","3",Italy
IT,"67050","Canistro Superiore","Abruzzi","AB","L'Aquila","AQ","","","41.9464","13.511","3",Italy
IT,"67050","Pero Dei Santi","Abruzzi","AB","L'Aquila","AQ","","","41.9464","13.511","3",Italy
IT,"67050","Corona","Abruzzi","AB","L'Aquila","AQ","","","42.1","13.3833","4",Italy
IT,"67050","Pagliara","Abruzzi","AB","L'Aquila","AQ","","","42","13.3167","4",Italy
IT,"67050","Ortucchio","Abruzzi","AB","L'Aquila","AQ","","","41.955","13.6458","4",Italy
IT,"67050","San Sebastiano","Abruzzi","AB","L'Aquila","AQ","","","42.0167","13.3","4",Italy
IT,"67050","Bisegna","Abruzzi","AB","L'Aquila","AQ","","","41.9211","13.7576","4",Italy
IT,"67050","Lecce Nei Marsi","Abruzzi","AB","L'Aquila","AQ","","","41.9338","13.687","4",Italy
IT,"67050","Forme","Abruzzi","AB","L'Aquila","AQ","","","42.1","13.4333","4",Italy
IT,"67050","Grancia","Abruzzi","AB","L'Aquila","AQ","","","41.9464","13.511","3",Italy
IT,"67050","Collelongo","Abruzzi","AB","L'Aquila","AQ","","","41.8868","13.5849","4",Italy
IT,"67050","San Vincenzo Valle Roveto Superiore","Abruzzi","AB","L'Aquila","AQ","","","41.8445","13.5354","4",Italy
IT,"67050","Canistro","Abruzzi","AB","L'Aquila","AQ","","","41.9407","13.4125","4",Italy
IT,"67050","Canistro Inferiore","Abruzzi","AB","L'Aquila","AQ","","","41.9464","13.511","3",Italy
IT,"67050","Ortona Dei Marsi","Abruzzi","AB","L'Aquila","AQ","","","41.9973","13.7281","4",Italy
IT,"67050","San Vincenzo Valle Roveto","Abruzzi","AB","L'Aquila","AQ","","","41.8332","13.5237","4",Italy
IT,"67050","Roccavivi","Abruzzi","AB","L'Aquila","AQ","","","41.8121","13.5366","4",Italy
IT,"67050","Morino","Abruzzi","AB","L'Aquila","AQ","","","41.8644","13.457","4",Italy
IT,"67050","Pagliara Dei Marsi","Abruzzi","AB","L'Aquila","AQ","","","41.9464","13.511","3",Italy
IT,"67050","Massa D'Albe","Abruzzi","AB","L'Aquila","AQ","","","42.1072","13.3943","4",Italy
IT,"67050","Castellafiume","Abruzzi","AB","L'Aquila","AQ","","","41.9891","13.3344","4",Italy
IT,"67051","Santuario Di Pietracquaria","Abruzzi","AB","L'Aquila","AQ","","","42.0447","13.4278","3",Italy
IT,"67051","Paterno","Abruzzi","AB","L'Aquila","AQ","","","42.05","13.4667","4",Italy
IT,"67051","San Pelino","Abruzzi","AB","L'Aquila","AQ","","","42.05","13.45","4",Italy
IT,"67051","Avezzano","Abruzzi","AB","L'Aquila","AQ","","","42.0402","13.4388","4",Italy
IT,"67051","Antrosano","Abruzzi","AB","L'Aquila","AQ","","","42.0667","13.4","4",Italy
IT,"67051","Cese","Abruzzi","AB","L'Aquila","AQ","","","42.0167","13.3833","4",Italy
IT,"67052","Ridotti","Abruzzi","AB","L'Aquila","AQ","","","41.8167","13.5667","3",Italy
IT,"67052","Balsorano Nuovo","Abruzzi","AB","L'Aquila","AQ","","","41.8167","13.5667","4",Italy
IT,"67052","Ridotti Di Balsorano","Abruzzi","AB","L'Aquila","AQ","","","41.8167","13.5667","3",Italy
IT,"67052","Balsorano","Abruzzi","AB","L'Aquila","AQ","","","41.8167","13.5667","4",Italy
IT,"67053","Pescocanale Di Capistrello","Abruzzi","AB","L'Aquila","AQ","","","41.9947","13.3745","3",Italy
IT,"67053","Capistrello","Abruzzi","AB","L'Aquila","AQ","","","41.9727","13.3991","4",Italy
IT,"67053","Corcumello","Abruzzi","AB","L'Aquila","AQ","","","42.0167","13.35","4",Italy
IT,"67053","Pescocanale","Abruzzi","AB","L'Aquila","AQ","","","41.9947","13.3745","3",Italy
IT,"67054","Civitella Roveto","Abruzzi","AB","L'Aquila","AQ","","","41.916","13.4269","4",Italy
IT,"67054","Meta","Abruzzi","AB","L'Aquila","AQ","","","41.916","13.4269","3",Italy
IT,"67055","Gioia Dei Marsi","Abruzzi","AB","L'Aquila","AQ","","","41.9578","13.6899","4",Italy
IT,"67055","Casali D'Aschi","Abruzzi","AB","L'Aquila","AQ","","","41.9578","13.6899","3",Italy
IT,"67056","Luco Dei Marsi","Abruzzi","AB","L'Aquila","AQ","","","41.957","13.4736","4",Italy
IT,"67057","Venere","Abruzzi","AB","L'Aquila","AQ","","","42.0235","13.6512","3",Italy
IT,"67057","Pescina","Abruzzi","AB","L'Aquila","AQ","","","42.0235","13.6512","4",Italy
IT,"67058","San Benedetto Dei Marsi","Abruzzi","AB","L'Aquila","AQ","","","42.0082","13.6227","4",Italy
IT,"67059","Trasacco","Abruzzi","AB","L'Aquila","AQ","","","41.9569","13.5345","4",Italy
IT,"67060","Cappadocia","Abruzzi","AB","L'Aquila","AQ","","","42.0065","13.28","4",Italy
IT,"67060","Verrecchie","Abruzzi","AB","L'Aquila","AQ","","","42.0333","13.2333","4",Italy
IT,"67060","Petrella Liri","Abruzzi","AB","L'Aquila","AQ","","","42.0167","13.2833","4",Italy
IT,"67061","Montesabinese","Abruzzi","AB","L'Aquila","AQ","","","42.1001","13.0821","3",Italy
IT,"67061","Carsoli","Abruzzi","AB","L'Aquila","AQ","","","42.0989","13.0849","4",Italy
IT,"67061","Poggio Cinolfo","Abruzzi","AB","L'Aquila","AQ","","","42.1","13.0333","4",Italy
IT,"67061","Villa Romana","Abruzzi","AB","L'Aquila","AQ","","","42.0667","13.0833","4",Italy
IT,"67061","Tufo Di Carsoli","Abruzzi","AB","L'Aquila","AQ","","","42.1001","13.0821","3",Italy
IT,"67061","Colli Di Montebove","Abruzzi","AB","L'Aquila","AQ","","","42.1001","13.0821","3",Italy
IT,"67061","Pietrasecca","Abruzzi","AB","L'Aquila","AQ","","","42.1349","13.1268","4",Italy
IT,"67062","Rosciolo","Abruzzi","AB","L'Aquila","AQ","","","42.1167","13.3333","4",Italy
IT,"67062","Magliano De' Marsi","Abruzzi","AB","L'Aquila","AQ","","","42.0915","13.3638","4",Italy
IT,"67062","Marano Dei Marsi","Abruzzi","AB","L'Aquila","AQ","","","42.1041","13.3486","3",Italy
IT,"67062","Rosciolo Dei Marsi","Abruzzi","AB","L'Aquila","AQ","","","42.1041","13.3486","3",Italy
IT,"67063","Oricola","Abruzzi","AB","L'Aquila","AQ","","","42.0492","13.0394","4",Italy
IT,"67063","Civita","Abruzzi","AB","L'Aquila","AQ","","","42.3","13.4333","4",Italy
IT,"67064","Pereto","Abruzzi","AB","L'Aquila","AQ","","","42.0589","13.1014","4",Italy
IT,"67066","Rocca Di Botte","Abruzzi","AB","L'Aquila","AQ","","","42.0262","13.0677","4",Italy
IT,"67067","Scanzano","Abruzzi","AB","L'Aquila","AQ","","","42.1","13.2333","4",Italy
IT,"67067","Santo Stefano","Abruzzi","AB","L'Aquila","AQ","","","42.1226","13.2255","4",Italy
IT,"67067","Sante Marie","Abruzzi","AB","L'Aquila","AQ","","","42.1035","13.2006","4",Italy
IT,"67067","Santo Stefano Di Sante Marie","Abruzzi","AB","L'Aquila","AQ","","","42.1226","13.2255","4",Italy
IT,"67068","Scurcola Marsicana","Abruzzi","AB","L'Aquila","AQ","","","42.0631","13.3392","4",Italy
IT,"67068","Cappelle Dei Marsi","Abruzzi","AB","L'Aquila","AQ","","","42.0566","13.3529","3",Italy
IT,"67068","Cappelle","Abruzzi","AB","L'Aquila","AQ","","","42.05","13.3667","4",Italy
IT,"67069","San Donato","Abruzzi","AB","L'Aquila","AQ","","","42.0833","13.2667","4",Italy
IT,"67069","San Donato Di Tagliacozzo","Abruzzi","AB","L'Aquila","AQ","","","42.0833","13.2667","4",Italy
IT,"67069","Sorbo Di Tagliacozzo","Abruzzi","AB","L'Aquila","AQ","","","42.0667","13.3","4",Italy
IT,"67069","Tagliacozzo","Abruzzi","AB","L'Aquila","AQ","","","42.0693","13.2547","4",Italy
IT,"67069","Tremonti","Abruzzi","AB","L'Aquila","AQ","","","42.0833","13.1833","4",Italy
IT,"67069","Gallo Di Tagliacozzo","Abruzzi","AB","L'Aquila","AQ","","","42.0833","13.25","4",Italy
IT,"67069","Poggio Filippo","Abruzzi","AB","L'Aquila","AQ","","","42.0833","13.3","4",Italy
IT,"67069","Sorbo","Abruzzi","AB","L'Aquila","AQ","","","42.0667","13.3","4",Italy
IT,"67069","Poggetello Di Tagliacozzo","Abruzzi","AB","L'Aquila","AQ","","","42.073","13.2625","3",Italy
IT,"67069","Poggetello","Abruzzi","AB","L'Aquila","AQ","","","42.0833","13.2167","4",Italy
IT,"67069","Villa San Sebastiano","Abruzzi","AB","L'Aquila","AQ","","","42.0167","13.3","4",Italy
IT,"67069","Roccacerro","Abruzzi","AB","L'Aquila","AQ","","","42.073","13.2625","3",Italy
IT,"67069","Gallo","Abruzzi","AB","L'Aquila","AQ","","","42.0833","13.25","4",Italy
IT,"67100","Forcella","Abruzzi","AB","L'Aquila","AQ","","","42.3167","13.25","4",Italy
IT,"67100","Aragno","Abruzzi","AB","L'Aquila","AQ","","","42.55","13.45","4",Italy
IT,"67100","Preturo","Abruzzi","AB","L'Aquila","AQ","","","42.3667","13.2833","4",Italy
IT,"67100","Santi","Abruzzi","AB","L'Aquila","AQ","","","42.4","13.2333","4",Italy
IT,"67100","Bagno","Abruzzi","AB","L'Aquila","AQ","","","42.3096","13.4248","4",Italy
IT,"67100","Monticchio","Abruzzi","AB","L'Aquila","AQ","","","42.3167","13.45","4",Italy
IT,"67100","Pianola","Abruzzi","AB","L'Aquila","AQ","","","42.3167","13.4","4",Italy
IT,"67100","San Benedetto","Abruzzi","AB","L'Aquila","AQ","","","42.0082","13.6227","4",Italy
IT,"67100","Camarda","Abruzzi","AB","L'Aquila","AQ","","","42.3833","13.4833","4",Italy
IT,"67100","San Vittorino Amiterno","Abruzzi","AB","L'Aquila","AQ","","","42.3472","13.3971","3",Italy
IT,"67100","Colle Di Roio","Abruzzi","AB","L'Aquila","AQ","","","42.3472","13.3971","3",Italy
IT,"67100","Assergi","Abruzzi","AB","L'Aquila","AQ","","","42.4167","13.5","4",Italy
IT,"67100","San Gregorio","Abruzzi","AB","L'Aquila","AQ","","","42.327","13.4953","4",Italy
IT,"67100","Tempera","Abruzzi","AB","L'Aquila","AQ","","","42.3662","13.4568","4",Italy
IT,"67100","Colle Brincioni","Abruzzi","AB","L'Aquila","AQ","","","42.3472","13.3971","3",Italy
IT,"67100","Pagliare","Abruzzi","AB","L'Aquila","AQ","","","42.3333","13.3","4",Italy
IT,"67100","L'Aquila","Abruzzi","AB","L'Aquila","AQ","","","42.3506","13.3995","4",Italy
IT,"67100","Roio Piano","Abruzzi","AB","L'Aquila","AQ","","","42.3309","13.3547","4",Italy
IT,"67100","Collebrincioni","Abruzzi","AB","L'Aquila","AQ","","","42.3833","13.4","4",Italy
IT,"67100","Bazzano","Abruzzi","AB","L'Aquila","AQ","","","42.3333","13.45","4",Italy
IT,"67100","Campo Imperatore","Abruzzi","AB","L'Aquila","AQ","","","42.3472","13.3971","3",Italy
IT,"67100","Paganica","Abruzzi","AB","L'Aquila","AQ","","","42.3571","13.4714","4",Italy
IT,"67100","Arischia","Abruzzi","AB","L'Aquila","AQ","","","42.4167","13.3333","4",Italy
IT,"67100","Onna","Abruzzi","AB","L'Aquila","AQ","","","42.3167","13.4667","4",Italy
IT,"67100","Pile","Abruzzi","AB","L'Aquila","AQ","","","42.3472","13.3971","3",Italy
IT,"67100","San Vittorino","Abruzzi","AB","L'Aquila","AQ","","","42.3833","13.3","4",Italy
IT,"67100","Coppito","Abruzzi","AB","L'Aquila","AQ","","","42.3673","13.3436","4",Italy
IT,"67100","Sassa","Abruzzi","AB","L'Aquila","AQ","","","42.35","13.2833","4",Italy
IT,"67100","Poggio Di Roio","Abruzzi","AB","L'Aquila","AQ","","","42.3318","13.3775","4",Italy
IT,"66010","Gessopalena","Abruzzi","AB","Chieti","CH","","","42.0566","14.2731","4",Italy
IT,"66010","Canosa Sannita","Abruzzi","AB","Chieti","CH","","","42.2992","14.3052","4",Italy
IT,"66010","Colledimacine","Abruzzi","AB","Chieti","CH","","","42.0044","14.2006","4",Italy
IT,"66010","Castelferrato","Abruzzi","AB","Chieti","CH","","","42.3667","14.2167","4",Italy
IT,"66010","Rapino","Abruzzi","AB","Chieti","CH","","","42.2107","14.1839","4",Italy
IT,"66010","San Martino Sulla Marrucina","Abruzzi","AB","Chieti","CH","","","42.225","14.214","4",Italy
IT,"66010","Torrevecchia Teatina","Abruzzi","AB","Chieti","CH","","","42.3827","14.2133","4",Italy
IT,"66010","Ari","Abruzzi","AB","Chieti","CH","","","42.2923","14.263","4",Italy
IT,"66010","Fara Filiorum Petri","Abruzzi","AB","Chieti","CH","","","42.2489","14.186","4",Italy
IT,"66010","San Rocco","Abruzzi","AB","Chieti","CH","","","42.2429","14.1289","4",Italy
IT,"66010","San Pietro","Abruzzi","AB","Chieti","CH","","","42.4833","13.6333","4",Italy
IT,"66010","Ripa Teatina","Abruzzi","AB","Chieti","CH","","","42.3586","14.2341","4",Italy
IT,"66010","Pretoro","Abruzzi","AB","Chieti","CH","","","42.2176","14.1418","4",Italy
IT,"66010","Roccamontepiano","Abruzzi","AB","Chieti","CH","","","42.2429","14.1289","4",Italy
IT,"66010","Civitella Messer Raimondo","Abruzzi","AB","Chieti","CH","","","42.0889","14.217","4",Italy
IT,"66010","Miglianico","Abruzzi","AB","Chieti","CH","","","42.3583","14.2916","4",Italy
IT,"66010","Montenerodomo","Abruzzi","AB","Chieti","CH","","","41.9756","14.2528","4",Italy
IT,"66010","Lama Dei Peligni","Abruzzi","AB","Chieti","CH","","","42.0415","14.1862","4",Italy
IT,"66010","Tollo","Abruzzi","AB","Chieti","CH","","","42.3479","14.3181","4",Italy
IT,"66010","Casacanditella","Abruzzi","AB","Chieti","CH","","","42.2474","14.1993","4",Italy
IT,"66010","Palombaro","Abruzzi","AB","Chieti","CH","","","42.1248","14.2306","4",Italy
IT,"66010","Semivicoli","Abruzzi","AB","Chieti","CH","","","42.2667","14.2","4",Italy
IT,"66010","Lettopalena","Abruzzi","AB","Chieti","CH","","","42.004","14.1568","4",Italy
IT,"66010","Vacri","Abruzzi","AB","Chieti","CH","","","42.2962","14.2303","4",Italy
IT,"66010","Terranova","Abruzzi","AB","Chieti","CH","","","42.2286","14.1969","3",Italy
IT,"66010","Villamagna","Abruzzi","AB","Chieti","CH","","","42.3289","14.2361","4",Italy
IT,"66010","Pennapiedimonte","Abruzzi","AB","Chieti","CH","","","42.1525","14.1956","4",Italy
IT,"66010","Giuliano Teatino","Abruzzi","AB","Chieti","CH","","","42.307","14.2788","4",Italy
IT,"66011","Colle Sant'Antonio","Abruzzi","AB","Chieti","CH","","","42.3048","14.181","3",Italy
IT,"66011","Bucchianico","Abruzzi","AB","Chieti","CH","","","42.3048","14.181","4",Italy
IT,"66012","Casalincontrada","Abruzzi","AB","Chieti","CH","","","42.2974","14.1351","4",Italy
IT,"66014","Crecchio","Abruzzi","AB","Chieti","CH","","","42.2891","14.3229","4",Italy
IT,"66014","Villa Tucci","Abruzzi","AB","Chieti","CH","","","42.3","14.3167","4",Italy
IT,"66015","Fara San Martino","Abruzzi","AB","Chieti","CH","","","42.09","14.2053","4",Italy
IT,"66016","Villa San Vincenzo","Abruzzi","AB","Chieti","CH","","","42.1911","14.206","3",Italy
IT,"66016","Comino","Abruzzi","AB","Chieti","CH","","","42.1868","14.1923","4",Italy
IT,"66016","Caporosso","Abruzzi","AB","Chieti","CH","","","42.1911","14.206","3",Italy
IT,"66016","Guardiagrele","Abruzzi","AB","Chieti","CH","","","42.1954","14.2198","4",Italy
IT,"66016","Piano Delle Fonti","Abruzzi","AB","Chieti","CH","","","42.1911","14.206","3",Italy
IT,"66017","Palena","Abruzzi","AB","Chieti","CH","","","41.983","14.1377","4",Italy
IT,"66018","Taranta Peligna","Abruzzi","AB","Chieti","CH","","","42.0208","14.1705","4",Italy
IT,"66019","Fallascoso","Abruzzi","AB","Chieti","CH","","","42","14.2333","4",Italy
IT,"66019","Torricella Peligna","Abruzzi","AB","Chieti","CH","","","42.0245","14.2591","4",Italy
IT,"66020","Scerni","Abruzzi","AB","Chieti","CH","","","42.1024","14.5687","4",Italy
IT,"66020","San Giacomo Di Scerni","Abruzzi","AB","Chieti","CH","","","42.2286","14.4525","3",Italy
IT,"66020","Paglieta","Abruzzi","AB","Chieti","CH","","","42.163","14.4973","4",Italy
IT,"66020","Sant'Egidio","Abruzzi","AB","Chieti","CH","","","42.2286","14.4525","3",Italy
IT,"66020","Rocca San Giovanni","Abruzzi","AB","Chieti","CH","","","42.246","14.4616","4",Italy
IT,"66020","Torino Di Sangro","Abruzzi","AB","Chieti","CH","","","42.1881","14.5408","4",Italy
IT,"66020","Sambuceto","Abruzzi","AB","Chieti","CH","","","42.4217","14.1875","4",Italy
IT,"66020","Pollutri","Abruzzi","AB","Chieti","CH","","","42.1378","14.5917","4",Italy
IT,"66020","Torino Di Sangro Stazione","Abruzzi","AB","Chieti","CH","","","42.2286","14.4525","3",Italy
IT,"66020","Villalfonsina","Abruzzi","AB","Chieti","CH","","","42.1605","14.5716","4",Italy
IT,"66020","San Giovanni Teatino","Abruzzi","AB","Chieti","CH","","","42.4091","14.201","4",Italy
IT,"66021","Casalbordino","Abruzzi","AB","Chieti","CH","","","42.1535","14.5991","4",Italy
IT,"66021","Casalbordino Stazione","Abruzzi","AB","Chieti","CH","","","42.1535","14.5991","3",Italy
IT,"66021","Miracoli","Abruzzi","AB","Chieti","CH","","","42.1535","14.5991","3",Italy
IT,"66022","Villascorciosa","Abruzzi","AB","Chieti","CH","","","42.2262","14.4565","3",Italy
IT,"66022","Scorciosa","Abruzzi","AB","Chieti","CH","","","42.2167","14.4333","4",Italy
IT,"66022","Fossacesia Marina","Abruzzi","AB","Chieti","CH","","","42.2262","14.4565","3",Italy
IT,"66022","Fossacesia","Abruzzi","AB","Chieti","CH","","","42.2356","14.4796","4",Italy
IT,"66023","Francavilla Al Mare Rione Foro","Abruzzi","AB","Chieti","CH","","","42.4206","14.287","3",Italy
IT,"66023","Francavilla Al Mare","Abruzzi","AB","Chieti","CH","","","42.4206","14.287","4",Italy
IT,"66026","Ortona","Abruzzi","AB","Chieti","CH","","","42.3496","14.4039","4",Italy
IT,"66026","San Nicola","Abruzzi","AB","Chieti","CH","","","42.2799","14.2441","3",Italy
IT,"66026","Villa San Leonardo","Abruzzi","AB","Chieti","CH","","","42.3","14.4","4",Italy
IT,"66026","Villa Caldari","Abruzzi","AB","Chieti","CH","","","42.2833","14.35","4",Italy
IT,"66026","Ortona Porto","Abruzzi","AB","Chieti","CH","","","42.2799","14.2441","3",Italy
IT,"66026","Villa San Nicola","Abruzzi","AB","Chieti","CH","","","42.2799","14.2441","3",Italy
IT,"66026","Ortona Foro","Abruzzi","AB","Chieti","CH","","","42.2799","14.2441","3",Italy
IT,"66026","San Leonardo","Abruzzi","AB","Chieti","CH","","","42.3","14.4","4",Italy
IT,"66026","Villa Grande","Abruzzi","AB","Chieti","CH","","","42.1667","13.6667","4",Italy
IT,"66030","Villa Romagnoli","Abruzzi","AB","Chieti","CH","","","42.2","14.4167","4",Italy
IT,"66030","Filetto","Abruzzi","AB","Chieti","CH","","","42.2282","14.2451","4",Italy
IT,"66030","Carpineto Sinello","Abruzzi","AB","Chieti","CH","","","42.012","14.505","4",Italy
IT,"66030","Arielli","Abruzzi","AB","Chieti","CH","","","42.2619","14.3075","4",Italy
IT,"66030","Mozzagrogna","Abruzzi","AB","Chieti","CH","","","42.2148","14.4392","4",Italy
IT,"66030","Montazzoli","Abruzzi","AB","Chieti","CH","","","41.9483","14.4291","4",Italy
IT,"66030","Poggiofiorito","Abruzzi","AB","Chieti","CH","","","42.2549","14.3223","4",Italy
IT,"66030","Santa Maria Imbaro","Abruzzi","AB","Chieti","CH","","","42.2177","14.4492","4",Italy
IT,"66030","Frisa","Abruzzi","AB","Chieti","CH","","","42.2612","14.3694","4",Italy
IT,"66030","Treglio","Abruzzi","AB","Chieti","CH","","","42.2677","14.4255","4",Italy
IT,"66030","Guastameroli","Abruzzi","AB","Chieti","CH","","","42.2667","14.3667","4",Italy
IT,"66031","Casalanguida","Abruzzi","AB","Chieti","CH","","","42.0366","14.4993","4",Italy
IT,"66032","Castel Frentano","Abruzzi","AB","Chieti","CH","","","42.1971","14.3552","4",Italy
IT,"66033","Castiglione Messer Marino","Abruzzi","AB","Chieti","CH","","","41.8689","14.4524","4",Italy
IT,"66034","Rizzacorno","Abruzzi","AB","Chieti","CH","","","42.1667","14.3833","4",Italy
IT,"66034","Sant'Amato","Abruzzi","AB","Chieti","CH","","","42.2056","14.3738","3",Italy
IT,"66034","Nasuti","Abruzzi","AB","Chieti","CH","","","42.2056","14.3738","3",Italy
IT,"66034","Villa Elce","Abruzzi","AB","Chieti","CH","","","42.2056","14.3738","3",Italy
IT,"66034","Lanciano","Abruzzi","AB","Chieti","CH","","","42.2167","14.3882","4",Italy
IT,"66034","Madonna Del Carmine","Abruzzi","AB","Chieti","CH","","","42.2333","14.35","4",Italy
IT,"66036","Orsogna","Abruzzi","AB","Chieti","CH","","","42.2189","14.2791","4",Italy
IT,"66037","Sant'Eusanio Del Sangro","Abruzzi","AB","Chieti","CH","","","42.1689","14.3271","4",Italy
IT,"66038","Marina Di San Vito","Abruzzi","AB","Chieti","CH","","","42.3","14.4333","4",Italy
IT,"66038","San Vito Chietino","Abruzzi","AB","Chieti","CH","","","42.296","14.4445","4",Italy
IT,"66038","Sant'Apollinare Chietino","Abruzzi","AB","Chieti","CH","","","42.2966","14.4097","4",Italy
IT,"66040","Pennadomo","Abruzzi","AB","Chieti","CH","","","42.0048","14.3243","4",Italy
IT,"66040","Perano","Abruzzi","AB","Chieti","CH","","","42.1031","14.394","4",Italy
IT,"66040","Montelapiano","Abruzzi","AB","Chieti","CH","","","41.9613","14.3427","4",Italy
IT,"66040","Altino","Abruzzi","AB","Chieti","CH","","","42.0993","14.3316","4",Italy
IT,"66040","Castelguidone","Abruzzi","AB","Chieti","CH","","","41.8226","14.5219","4",Italy
IT,"66040","Giuliopoli","Abruzzi","AB","Chieti","CH","","","41.9167","14.35","4",Italy
IT,"66040","Selva Di Altino","Abruzzi","AB","Chieti","CH","","","41.9611","14.3376","3",Italy
IT,"66040","Rosello","Abruzzi","AB","Chieti","CH","","","41.9008","14.3498","4",Italy
IT,"66040","Roccascalegna","Abruzzi","AB","Chieti","CH","","","42.0625","14.3068","4",Italy
IT,"66040","Fallo","Abruzzi","AB","Chieti","CH","","","41.9383","14.3236","4",Italy
IT,"66040","Roio Del Sangro","Abruzzi","AB","Chieti","CH","","","41.9115","14.3738","4",Italy
IT,"66040","Montebello Sul Sangro","Abruzzi","AB","Chieti","CH","","","41.9866","14.324","4",Italy
IT,"66040","Monteferrante","Abruzzi","AB","Chieti","CH","","","41.9547","14.3884","4",Italy
IT,"66040","Civitaluparella","Abruzzi","AB","Chieti","CH","","","41.9461","14.299","4",Italy
IT,"66040","Quadri","Abruzzi","AB","Chieti","CH","","","41.9249","14.2882","4",Italy
IT,"66040","Borrello","Abruzzi","AB","Chieti","CH","","","41.9189","14.3044","4",Italy
IT,"66040","Buonanotte","Abruzzi","AB","Chieti","CH","","","41.9866","14.324","4",Italy
IT,"66040","Pizzoferrato","Abruzzi","AB","Chieti","CH","","","41.9214","14.2357","4",Italy
IT,"66040","Pietraferrazzana","Abruzzi","AB","Chieti","CH","","","41.9688","14.374","4",Italy
IT,"66040","Gamberale","Abruzzi","AB","Chieti","CH","","","41.906","14.2073","4",Italy
IT,"66040","Colledimezzo","Abruzzi","AB","Chieti","CH","","","41.9874","14.3884","4",Italy
IT,"66040","Selva","Abruzzi","AB","Chieti","CH","","","41.9611","14.3376","3",Italy
IT,"66041","Piazzano Di Atessa","Abruzzi","AB","Chieti","CH","","","42.0693","14.4511","3",Italy
IT,"66041","Monte Marcone","Abruzzi","AB","Chieti","CH","","","42.0693","14.4511","3",Italy
IT,"66041","Piazzano","Abruzzi","AB","Chieti","CH","","","42.0693","14.4511","3",Italy
IT,"66041","Atessa","Abruzzi","AB","Chieti","CH","","","42.0693","14.4511","4",Italy
IT,"66041","Piana La Fara","Abruzzi","AB","Chieti","CH","","","42.0693","14.4511","3",Italy
IT,"66042","Bomba","Abruzzi","AB","Chieti","CH","","","42.0343","14.3671","4",Italy
IT,"66043","Selva Piana","Abruzzi","AB","Chieti","CH","","","42.1146","14.2902","3",Italy
IT,"66043","Casoli","Abruzzi","AB","Chieti","CH","","","42.1146","14.2902","4",Italy
IT,"66044","Archi","Abruzzi","AB","Chieti","CH","","","42.0899","14.3812","4",Italy
IT,"66044","Piane D'Archi","Abruzzi","AB","Chieti","CH","","","42.0899","14.3812","3",Italy
IT,"66045","Schiavi Di Abruzzo","Abruzzi","AB","Chieti","CH","","","41.8151","14.4858","4",Italy
IT,"66045","Taverna Di Schiavi Di Abruzzo","Abruzzi","AB","Chieti","CH","","","41.8151","14.4858","3",Italy
IT,"66046","Tornareccio","Abruzzi","AB","Chieti","CH","","","42.0381","14.4161","4",Italy
IT,"66046","San Giovanni","Abruzzi","AB","Chieti","CH","","","42.0381","14.4161","3",Italy
IT,"66047","Villa Santa Maria","Abruzzi","AB","Chieti","CH","","","41.9524","14.3518","4",Italy
IT,"66050","Monteodorisio","Abruzzi","AB","Chieti","CH","","","42.0859","14.6526","4",Italy
IT,"66050","Celenza Sul Trigno","Abruzzi","AB","Chieti","CH","","","41.8722","14.5779","4",Italy
IT,"66050","Tufillo","Abruzzi","AB","Chieti","CH","","","41.9175","14.6247","4",Italy
IT,"66050","Dogliola","Abruzzi","AB","Chieti","CH","","","41.9418","14.6362","4",Italy
IT,"66050","Torrebruna","Abruzzi","AB","Chieti","CH","","","41.8681","14.5408","4",Italy
IT,"66050","San Salvo","Abruzzi","AB","Chieti","CH","","","42.0433","14.7272","4",Italy
IT,"66050","Fraine","Abruzzi","AB","Chieti","CH","","","41.9054","14.4864","4",Italy
IT,"66050","Fresagrandinaria","Abruzzi","AB","Chieti","CH","","","41.979","14.6635","4",Italy
IT,"66050","San Salvo Marina","Abruzzi","AB","Chieti","CH","","","41.947","14.5808","3",Italy
IT,"66050","San Buono","Abruzzi","AB","Chieti","CH","","","41.9808","14.5699","4",Italy
IT,"66050","San Giovanni Lipioni","Abruzzi","AB","Chieti","CH","","","41.8452","14.563","4",Italy
IT,"66050","Lentella","Abruzzi","AB","Chieti","CH","","","41.9959","14.6778","4",Italy
IT,"66050","Guilmi","Abruzzi","AB","Chieti","CH","","","41.997","14.4784","4",Italy
IT,"66050","Guardiabruna","Abruzzi","AB","Chieti","CH","","","41.85","14.5333","4",Italy
IT,"66050","Carunchio","Abruzzi","AB","Chieti","CH","","","41.9166","14.5267","4",Italy
IT,"66050","Furci","Abruzzi","AB","Chieti","CH","","","42.0094","14.5876","4",Italy
IT,"66050","Roccaspinalveti","Abruzzi","AB","Chieti","CH","","","41.9423","14.4709","4",Italy
IT,"66050","Palmoli","Abruzzi","AB","Chieti","CH","","","41.9394","14.5814","4",Italy
IT,"66050","Liscia","Abruzzi","AB","Chieti","CH","","","41.9552","14.5553","4",Italy
IT,"66050","Olmi","Abruzzi","AB","Chieti","CH","","","41.947","14.5808","3",Italy
IT,"66051","Cupello","Abruzzi","AB","Chieti","CH","","","42.0681","14.6692","4",Italy
IT,"66052","Gissi","Abruzzi","AB","Chieti","CH","","","42.0166","14.5443","4",Italy
IT,"66054","Vasto Marina","Abruzzi","AB","Chieti","CH","","","42.0937","14.7268","4",Italy
IT,"66054","San Lorenzo Di Vasto","Abruzzi","AB","Chieti","CH","","","42.1039","14.7199","3",Italy
IT,"66054","Incoronata Di Vasto","Abruzzi","AB","Chieti","CH","","","42.1039","14.7199","3",Italy
IT,"66054","Vasto","Abruzzi","AB","Chieti","CH","","","42.1243","14.7059","4",Italy
IT,"66054","Marina Di Vasto","Abruzzi","AB","Chieti","CH","","","42.0937","14.7268","4",Italy
IT,"66100","Brecciarola","Abruzzi","AB","Chieti","CH","","","42.3609","14.138","3",Italy
IT,"66100","Chieti Stazione","Abruzzi","AB","Chieti","CH","","","42.3609","14.138","3",Italy
IT,"66100","Chieti Scalo","Abruzzi","AB","Chieti","CH","","","42.3609","14.138","3",Italy
IT,"66100","Chieti","Abruzzi","AB","Chieti","CH","","","42.3609","14.138","4",Italy
IT,"66100","Tricalle","Abruzzi","AB","Chieti","CH","","","42.3609","14.138","3",Italy
IT,"65010","Congiunti","Abruzzi","AB","Pescara","PE","","","42.4191","13.9192","3",Italy
IT,"65010","Montebello Di Bertona","Abruzzi","AB","Pescara","PE","","","42.4179","13.8719","4",Italy
IT,"65010","Cappelle Sul Tavo","Abruzzi","AB","Pescara","PE","","","42.4658","14.0976","4",Italy
IT,"65010","Piccianello","Abruzzi","AB","Pescara","PE","","","42.4833","13.9833","4",Italy
IT,"65010","Vicoli","Abruzzi","AB","Pescara","PE","","","42.3414","13.8971","4",Italy
IT,"65010","Elice","Abruzzi","AB","Pescara","PE","","","42.5204","13.9693","4",Italy
IT,"65010","Collecorvino","Abruzzi","AB","Pescara","PE","","","42.4589","14.0152","4",Italy
IT,"65010","Brittoli","Abruzzi","AB","Pescara","PE","","","42.3173","13.8616","4",Italy
IT,"65010","Barberi","Abruzzi","AB","Pescara","PE","","","42.4191","13.9192","3",Italy
IT,"65010","Vestea","Abruzzi","AB","Pescara","PE","","","42.4191","13.9192","3",Italy
IT,"65010","Moscufo","Abruzzi","AB","Pescara","PE","","","42.4281","14.0543","4",Italy
IT,"65010","Civitella Casanova","Abruzzi","AB","Pescara","PE","","","42.3645","13.8851","4",Italy
IT,"65010","Carpineto Della Nora","Abruzzi","AB","Pescara","PE","","","42.333","13.8608","4",Italy
IT,"65010","Picciano","Abruzzi","AB","Pescara","PE","","","42.4756","13.9893","4",Italy
IT,"65010","Caprara D'Abruzzo","Abruzzi","AB","Pescara","PE","","","42.4333","14.1","4",Italy
IT,"65010","Farindola","Abruzzi","AB","Pescara","PE","","","42.4424","13.8221","4",Italy
IT,"65010","Santa Teresa","Abruzzi","AB","Pescara","PE","","","42.4191","13.9192","3",Italy
IT,"65010","Santa Lucia","Abruzzi","AB","Pescara","PE","","","42.5667","13.25","4",Italy
IT,"65010","Villa Celiera","Abruzzi","AB","Pescara","PE","","","42.3818","13.8586","4",Italy
IT,"65010","Spoltore","Abruzzi","AB","Pescara","PE","","","42.4534","14.141","4",Italy
IT,"65010","Santa Lucia Di Collecorvino","Abruzzi","AB","Pescara","PE","","","42.4191","13.9192","3",Italy
IT,"65010","Civitaquana","Abruzzi","AB","Pescara","PE","","","42.3259","13.9034","4",Italy
IT,"65010","Nocciano","Abruzzi","AB","Pescara","PE","","","42.333","13.9841","4",Italy
IT,"65010","Villa Raspa","Abruzzi","AB","Pescara","PE","","","42.4191","13.9192","3",Italy
IT,"65011","Catignano","Abruzzi","AB","Pescara","PE","","","42.3475","13.9535","4",Italy
IT,"65012","Cepagatti","Abruzzi","AB","Pescara","PE","","","42.3649","14.0758","4",Italy
IT,"65012","Villanova","Abruzzi","AB","Pescara","PE","","","42.3649","14.0758","3",Italy
IT,"65012","Vallemare Di Cepagatti","Abruzzi","AB","Pescara","PE","","","42.3649","14.0758","3",Italy
IT,"65012","Villareia","Abruzzi","AB","Pescara","PE","","","42.3649","14.0758","3",Italy
IT,"65012","Vallemare","Abruzzi","AB","Pescara","PE","","","42.3649","14.0758","3",Italy
IT,"65013","Villa Cipresso","Abruzzi","AB","Pescara","PE","","","42.5181","14.0592","3",Italy
IT,"65013","Citta' Sant'Angelo","Abruzzi","AB","Pescara","PE","","","42.5181","14.0592","4",Italy
IT,"65013","San Martino Bassa","Abruzzi","AB","Pescara","PE","","","42.5181","14.0592","3",Italy
IT,"65013","Marina","Abruzzi","AB","Pescara","PE","","","42.5181","14.0592","3",Italy
IT,"65014","Loreto Aprutino","Abruzzi","AB","Pescara","PE","","","42.4292","13.9809","4",Italy
IT,"65015","Montesilvano Marina","Abruzzi","AB","Pescara","PE","","","42.5167","14.15","4",Italy
IT,"65015","Montesilvano","Abruzzi","AB","Pescara","PE","","","42.5039","14.138","4",Italy
IT,"65015","Montesilvano Colle","Abruzzi","AB","Pescara","PE","","","42.5103","14.144","3",Italy
IT,"65015","Villa Carmine","Abruzzi","AB","Pescara","PE","","","42.5103","14.144","3",Italy
IT,"65015","Montesilvano Spiaggia","Abruzzi","AB","Pescara","PE","","","42.5103","14.144","3",Italy
IT,"65017","Roccafinadamo","Abruzzi","AB","Pescara","PE","","","42.4538","13.9299","3",Italy
IT,"65017","Penne","Abruzzi","AB","Pescara","PE","","","42.4538","13.9299","4",Italy
IT,"65019","Cerratina","Abruzzi","AB","Pescara","PE","","","42.3833","14.1","4",Italy
IT,"65019","Pianella","Abruzzi","AB","Pescara","PE","","","42.4003","14.0499","4",Italy
IT,"65019","Castellana","Abruzzi","AB","Pescara","PE","","","42.3918","14.075","3",Italy
IT,"65020","Cugnoli","Abruzzi","AB","Pescara","PE","","","42.3071","13.9327","4",Italy
IT,"65020","San Valentino In Abruzzo Citeriore","Abruzzi","AB","Pescara","PE","","","42.233","13.9856","4",Italy
IT,"65020","Pesconuovo","Abruzzi","AB","Pescara","PE","","","42.251","13.9739","3",Italy
IT,"65020","Bolognano","Abruzzi","AB","Pescara","PE","","","42.2181","13.9601","4",Italy
IT,"65020","Salle","Abruzzi","AB","Pescara","PE","","","42.1769","13.9612","4",Italy
IT,"65020","Alanno Stazione","Abruzzi","AB","Pescara","PE","","","42.251","13.9739","3",Italy
IT,"65020","Villa Oliveti","Abruzzi","AB","Pescara","PE","","","42.251","13.9739","3",Italy
IT,"65020","Piano D'Orta","Abruzzi","AB","Pescara","PE","","","42.251","13.9739","3",Italy
IT,"65020","Villa Badessa","Abruzzi","AB","Pescara","PE","","","42.35","14.0333","4",Italy
IT,"65020","Lettomanoppello","Abruzzi","AB","Pescara","PE","","","42.2437","14.0366","4",Italy
IT,"65020","Villa San Giovanni","Abruzzi","AB","Pescara","PE","","","42.251","13.9739","3",Italy
IT,"65020","Alanno Scalo","Abruzzi","AB","Pescara","PE","","","42.251","13.9739","3",Italy
IT,"65020","Corvara","Abruzzi","AB","Pescara","PE","","","42.2749","13.873","4",Italy
IT,"65020","Alanno","Abruzzi","AB","Pescara","PE","","","42.2954","13.9711","4",Italy
IT,"65020","Abbateggio","Abruzzi","AB","Pescara","PE","","","42.2251","14.0111","4",Italy
IT,"65020","Turrivalignani","Abruzzi","AB","Pescara","PE","","","42.2619","14.0267","4",Italy
IT,"65020","Musellaro","Abruzzi","AB","Pescara","PE","","","42.251","13.9739","3",Italy
IT,"65020","Roccamorice","Abruzzi","AB","Pescara","PE","","","42.2127","14.0253","4",Italy
IT,"65020","Ticchione","Abruzzi","AB","Pescara","PE","","","42.251","13.9739","3",Italy
IT,"65020","Sant'Eufemia A Maiella","Abruzzi","AB","Pescara","PE","","","42.1261","14.0265","4",Italy
IT,"65020","Rosciano","Abruzzi","AB","Pescara","PE","","","42.3239","14.0462","4",Italy
IT,"65020","Pescosansonesco","Abruzzi","AB","Pescara","PE","","","42.2552","13.8848","4",Italy
IT,"65020","Pietranico","Abruzzi","AB","Pescara","PE","","","42.2762","13.9104","4",Italy
IT,"65020","Castiglione A Casauria","Abruzzi","AB","Pescara","PE","","","42.236","13.8976","4",Italy
IT,"65022","Bussi Sul Tirino","Abruzzi","AB","Pescara","PE","","","42.213","13.8262","4",Italy
IT,"65022","Bussi Officine","Abruzzi","AB","Pescara","PE","","","42.1833","13.8333","4",Italy
IT,"65023","Caramanico Terme","Abruzzi","AB","Pescara","PE","","","42.1591","14.0055","4",Italy
IT,"65023","San Tommaso","Abruzzi","AB","Pescara","PE","","","42.1833","13.9667","4",Italy
IT,"65024","Manoppello Stazione","Abruzzi","AB","Pescara","PE","","","42.2705","14.0633","3",Italy
IT,"65024","Manoppello Scalo","Abruzzi","AB","Pescara","PE","","","42.2705","14.0633","3",Italy
IT,"65024","Ripacorbaria","Abruzzi","AB","Pescara","PE","","","42.2833","14.0667","4",Italy
IT,"65024","Manoppello","Abruzzi","AB","Pescara","PE","","","42.2576","14.06","4",Italy
IT,"65025","Serramonacesca","Abruzzi","AB","Pescara","PE","","","42.2488","14.0923","4",Italy
IT,"65026","Popoli","Abruzzi","AB","Pescara","PE","","","42.1699","13.8308","4",Italy
IT,"65027","Scafa","Abruzzi","AB","Pescara","PE","","","42.2671","13.9998","4",Italy
IT,"65027","Decontra","Abruzzi","AB","Pescara","PE","","","42.2671","13.9998","3",Italy
IT,"65028","Tocco Da Casauria","Abruzzi","AB","Pescara","PE","","","42.2137","13.9135","4",Italy
IT,"65029","Torre De' Passeri","Abruzzi","AB","Pescara","PE","","","42.2432","13.9333","4",Italy
IT,"65100","Pescara","Abruzzi","AB","Pescara","PE","","","42.4602","14.2102","4",Italy
IT,"65121","Pescara","Abruzzi","AB","Pescara","PE","","","42.4602","14.2102","4",Italy
IT,"65122","Pescara","Abruzzi","AB","Pescara","PE","","","42.4602","14.2102","4",Italy
IT,"65123","Pescara","Abruzzi","AB","Pescara","PE","","","42.4602","14.2102","4",Italy
IT,"65124","Pescara","Abruzzi","AB","Pescara","PE","","","42.4602","14.2102","4",Italy
IT,"65125","Pescara Colli","Abruzzi","AB","Pescara","PE","","","42.4602","14.2102","3",Italy
IT,"65125","Pescara","Abruzzi","AB","Pescara","PE","","","42.4602","14.2102","4",Italy
IT,"65126","Pescara","Abruzzi","AB","Pescara","PE","","","42.4602","14.2102","4",Italy
IT,"65127","Pescara","Abruzzi","AB","Pescara","PE","","","42.4602","14.2102","4",Italy
IT,"65128","Pescara","Abruzzi","AB","Pescara","PE","","","42.4602","14.2102","4",Italy
IT,"65129","Pineta Di Pescara","Abruzzi","AB","Pescara","PE","","","42.45","14.2333","4",Italy
IT,"65129","Pescara","Abruzzi","AB","Pescara","PE","","","42.4602","14.2102","4",Italy
IT,"65131","Fontanelle","Abruzzi","AB","Pescara","PE","","","42.6167","13.9167","4",Italy
IT,"65132","Pescara","Abruzzi","AB","Pescara","PE","","","42.4602","14.2102","4",Italy
IT,"65132","San Silvestro","Abruzzi","AB","Pescara","PE","","","42.55","14.1","4",Italy
IT,"64010","Leofara","Abruzzi","AB","Teramo","TE","","","42.7333","13.5333","4",Italy
IT,"64010","Cerqueto Del Tronto","Abruzzi","AB","Teramo","TE","","","42.7952","13.6163","4",Italy
IT,"64010","Villa Lempa","Abruzzi","AB","Teramo","TE","","","42.7934","13.6443","4",Italy
IT,"64010","Civitella Del Tronto","Abruzzi","AB","Teramo","TE","","","42.773","13.6763","4",Italy
IT,"64010","Torano Nuovo","Abruzzi","AB","Teramo","TE","","","42.823","13.7773","4",Italy
IT,"64010","Pietralta","Abruzzi","AB","Teramo","TE","","","42.7","13.4333","4",Italy
IT,"64010","Santo Stefano","Abruzzi","AB","Teramo","TE","","","42.65","13.6","4",Italy
IT,"64010","Ancarano","Abruzzi","AB","Teramo","TE","","","42.836","13.7394","4",Italy
IT,"64010","Valle Castellana","Abruzzi","AB","Teramo","TE","","","42.7361","13.4971","4",Italy
IT,"64010","Rocca Santa Maria","Abruzzi","AB","Teramo","TE","","","42.7592","13.6392","3",Italy
IT,"64010","Pascellata","Abruzzi","AB","Teramo","TE","","","42.7006","13.4964","4",Italy
IT,"64010","Santo Stefano Di Torricella Sicura","Abruzzi","AB","Teramo","TE","","","42.65","13.6","4",Italy
IT,"64010","Ioanella","Abruzzi","AB","Teramo","TE","","","42.7592","13.6392","3",Italy
IT,"64010","Colonnella","Abruzzi","AB","Teramo","TE","","","42.8732","13.8683","4",Italy
IT,"64010","Ponzano","Abruzzi","AB","Teramo","TE","","","42.7778","13.7052","4",Italy
IT,"64010","Ripe Civitella Del Tronto","Abruzzi","AB","Teramo","TE","","","42.7562","13.6371","4",Italy
IT,"64010","Villa Favale","Abruzzi","AB","Teramo","TE","","","42.7592","13.6392","3",Italy
IT,"64010","Villa Passo","Abruzzi","AB","Teramo","TE","","","42.7801","13.6522","4",Italy
IT,"64010","Cesano","Abruzzi","AB","Teramo","TE","","","42.7592","13.6392","3",Italy
IT,"64010","Torricella Sicura","Abruzzi","AB","Teramo","TE","","","42.659","13.6572","4",Italy
IT,"64010","Rocche Di Civitella","Abruzzi","AB","Teramo","TE","","","42.7501","13.6596","4",Italy
IT,"64010","Controguerra","Abruzzi","AB","Teramo","TE","","","42.8545","13.8176","4",Italy
IT,"64010","San Vito","Abruzzi","AB","Teramo","TE","","","42.7833","13.5333","4",Italy
IT,"64011","Alba Adriatica","Abruzzi","AB","Teramo","TE","","","42.8318","13.9259","4",Italy
IT,"64012","Campovalano","Abruzzi","AB","Teramo","TE","","","42.7333","13.6667","4",Italy
IT,"64012","Villa Paterno","Abruzzi","AB","Teramo","TE","","","42.7379","13.6837","3",Italy
IT,"64012","Garrufo Di Campli","Abruzzi","AB","Teramo","TE","","","42.737","13.6572","4",Italy
IT,"64012","Piancarani","Abruzzi","AB","Teramo","TE","","","42.7379","13.6837","3",Italy
IT,"64012","Sant'Onofrio","Abruzzi","AB","Teramo","TE","","","42.7379","13.6837","3",Italy
IT,"64012","Paterno","Abruzzi","AB","Teramo","TE","","","42.7527","13.7187","4",Italy
IT,"64012","Campli","Abruzzi","AB","Teramo","TE","","","42.7285","13.6923","4",Italy
IT,"64013","Corropoli","Abruzzi","AB","Teramo","TE","","","42.8272","13.8347","4",Italy
IT,"64014","Villa Rosa Di Martinsicuro","Abruzzi","AB","Teramo","TE","","","42.8811","13.9145","3",Italy
IT,"64014","Martinsicuro","Abruzzi","AB","Teramo","TE","","","42.8811","13.9145","4",Italy
IT,"64014","Villa Rosa","Abruzzi","AB","Teramo","TE","","","42.8811","13.9145","3",Italy
IT,"64015","Nereto","Abruzzi","AB","Teramo","TE","","","42.819","13.816","4",Italy
IT,"64016","Faraone","Abruzzi","AB","Teramo","TE","","","42.803","13.6739","4",Italy
IT,"64016","Sant'Egidio Alla Vibrata","Abruzzi","AB","Teramo","TE","","","42.821","13.7179","4",Italy
IT,"64016","Villa Mattoni","Abruzzi","AB","Teramo","TE","","","42.812","13.6959","3",Italy
IT,"64016","Faraone Nuovo","Abruzzi","AB","Teramo","TE","","","42.812","13.6959","3",Italy
IT,"64016","Paolantonio","Abruzzi","AB","Teramo","TE","","","42.812","13.6959","3",Italy
IT,"64018","Tortoreto Lido","Abruzzi","AB","Teramo","TE","","","42.7996","13.9421","4",Italy
IT,"64018","Salino","Abruzzi","AB","Teramo","TE","","","42.8016","13.9278","3",Italy
IT,"64018","Tortoreto","Abruzzi","AB","Teramo","TE","","","42.8037","13.9135","4",Italy
IT,"64020","Castelbasso","Abruzzi","AB","Teramo","TE","","","42.6333","13.8333","4",Italy
IT,"64020","Canzano","Abruzzi","AB","Teramo","TE","","","42.6456","13.8041","4",Italy
IT,"64020","Pagliare","Abruzzi","AB","Teramo","TE","","","42.3333","13.3","4",Italy
IT,"64020","Bellante Stazione","Abruzzi","AB","Teramo","TE","","","42.6207","13.7533","3",Italy
IT,"64020","Morro D'Oro","Abruzzi","AB","Teramo","TE","","","42.663","13.9205","4",Italy
IT,"64020","Castellalto","Abruzzi","AB","Teramo","TE","","","42.678","13.8216","4",Italy
IT,"64020","Castelnuovo Vomano","Abruzzi","AB","Teramo","TE","","","42.6207","13.7533","3",Italy
IT,"64020","Casemolino","Abruzzi","AB","Teramo","TE","","","42.6207","13.7533","3",Italy
IT,"64020","Bellante","Abruzzi","AB","Teramo","TE","","","42.7418","13.8102","4",Italy
IT,"64020","Villa Zaccheo","Abruzzi","AB","Teramo","TE","","","42.6207","13.7533","3",Italy
IT,"64020","Ripattoni","Abruzzi","AB","Teramo","TE","","","42.6207","13.7533","3",Italy
IT,"64020","Petriccione","Abruzzi","AB","Teramo","TE","","","42.6207","13.7533","3",Italy
IT,"64020","Valle Canzano","Abruzzi","AB","Teramo","TE","","","42.65","13.7833","4",Italy
IT,"64020","Zaccheo","Abruzzi","AB","Teramo","TE","","","42.6207","13.7533","3",Italy
IT,"64021","Colleranesco","Abruzzi","AB","Teramo","TE","","","42.7611","13.9537","3",Italy
IT,"64021","Giulianova Spiaggia","Abruzzi","AB","Teramo","TE","","","42.7611","13.9537","3",Italy
IT,"64021","Giulianova","Abruzzi","AB","Teramo","TE","","","42.7611","13.9537","4",Italy
IT,"64023","Montone","Abruzzi","AB","Teramo","TE","","","42.7667","13.9167","4",Italy
IT,"64023","Mosciano Sant'Angelo","Abruzzi","AB","Teramo","TE","","","42.7468","13.8883","4",Italy
IT,"64023","Notaresco Stazione","Abruzzi","AB","Teramo","TE","","","42.7568","13.9025","3",Italy
IT,"64024","Notaresco","Abruzzi","AB","Teramo","TE","","","42.6541","13.8947","4",Italy
IT,"64024","Pianura Vomano","Abruzzi","AB","Teramo","TE","","","42.6437","13.889","3",Italy
IT,"64024","Guardia Vomano","Abruzzi","AB","Teramo","TE","","","42.6333","13.8833","4",Italy
IT,"64025","Mutignano","Abruzzi","AB","Teramo","TE","","","42.5833","14.0333","4",Italy
IT,"64025","Scerne","Abruzzi","AB","Teramo","TE","","","42.6333","14.0333","4",Italy
IT,"64025","Pineto","Abruzzi","AB","Teramo","TE","","","42.6097","14.066","4",Italy
IT,"64025","Borgo Santa Maria Immacolata","Abruzzi","AB","Teramo","TE","","","42.6149","14.0415","3",Italy
IT,"64025","Scerne Di Pineto","Abruzzi","AB","Teramo","TE","","","42.6333","14.0333","4",Italy
IT,"64026","Santa Lucia","Abruzzi","AB","Teramo","TE","","","42.5667","13.25","4",Italy
IT,"64026","San Giovanni","Abruzzi","AB","Teramo","TE","","","42.2833","13.5667","4",Italy
IT,"64026","Cologna Paese","Abruzzi","AB","Teramo","TE","","","42.5733","13.7512","3",Italy
IT,"64026","Santa Lucia Di Roseto Degli Abruzzi","Abruzzi","AB","Teramo","TE","","","42.5733","13.7512","3",Italy
IT,"64026","Roseto Degli Abruzzi","Abruzzi","AB","Teramo","TE","","","42.6663","14.0227","4",Italy
IT,"64026","Cologna","Abruzzi","AB","Teramo","TE","","","42.6833","13.9333","4",Italy
IT,"64026","Cologna Spiaggia","Abruzzi","AB","Teramo","TE","","","42.5733","13.7512","3",Italy
IT,"64026","Montepagano","Abruzzi","AB","Teramo","TE","","","42.6667","13.9833","4",Italy
IT,"64027","Garrufo","Abruzzi","AB","Teramo","TE","","","42.737","13.6572","4",Italy
IT,"64027","Sant'Omero","Abruzzi","AB","Teramo","TE","","","42.7912","13.7867","4",Italy
IT,"64027","Poggio Morello","Abruzzi","AB","Teramo","TE","","","42.7833","13.8667","4",Italy
IT,"64028","Silvi","Abruzzi","AB","Teramo","TE","","","42.5456","14.122","4",Italy
IT,"64028","San Silvestro","Abruzzi","AB","Teramo","TE","","","42.55","14.1","4",Italy
IT,"64028","Silvi Marina","Abruzzi","AB","Teramo","TE","","","42.5667","14.1","4",Italy
IT,"64028","Pianacce","Abruzzi","AB","Teramo","TE","","","42.5541","14.1073","3",Italy
IT,"64030","Montefino","Abruzzi","AB","Teramo","TE","","","42.5445","13.8837","4",Italy
IT,"64030","Castel Castagna","Abruzzi","AB","Teramo","TE","","","42.5429","13.7164","4",Italy
IT,"64030","Basciano","Abruzzi","AB","Teramo","TE","","","42.5937","13.7401","4",Italy
IT,"64030","Villa Bozza","Abruzzi","AB","Teramo","TE","","","42.5604","13.7801","3",Italy
IT,"64031","Arsita","Abruzzi","AB","Teramo","TE","","","42.5021","13.7828","4",Italy
IT,"64032","Atri","Abruzzi","AB","Teramo","TE","","","42.5778","13.9848","4",Italy
IT,"64032","Casoli Di Atri","Abruzzi","AB","Teramo","TE","","","42.6167","13.9667","4",Italy
IT,"64032","Fontanelle","Abruzzi","AB","Teramo","TE","","","42.6167","13.9167","4",Italy
IT,"64032","San Giacomo D'Atri","Abruzzi","AB","Teramo","TE","","","42.6022","13.9503","3",Italy
IT,"64032","Casoli","Abruzzi","AB","Teramo","TE","","","42.6167","13.9667","4",Italy
IT,"64032","San Giacomo","Abruzzi","AB","Teramo","TE","","","42.5833","13.9167","4",Italy
IT,"64032","Santa Margherita Di Atri","Abruzzi","AB","Teramo","TE","","","42.6022","13.9503","3",Italy
IT,"64032","Treciminiere","Abruzzi","AB","Teramo","TE","","","42.6022","13.9503","3",Italy
IT,"64032","Santa Margherita","Abruzzi","AB","Teramo","TE","","","42.6022","13.9503","3",Italy
IT,"64033","Bisenti","Abruzzi","AB","Teramo","TE","","","42.5287","13.8005","4",Italy
IT,"64034","Appignano","Abruzzi","AB","Teramo","TE","","","42.5333","13.85","4",Italy
IT,"64034","Castiglione Messer Raimondo","Abruzzi","AB","Teramo","TE","","","42.5323","13.8787","4",Italy
IT,"64035","Castilenti","Abruzzi","AB","Teramo","TE","","","42.5333","13.9171","4",Italy
IT,"64035","Villa San Romualdo","Abruzzi","AB","Teramo","TE","","","42.5333","13.9171","3",Italy
IT,"64036","Scorrano","Abruzzi","AB","Teramo","TE","","","42.5833","13.8167","4",Italy
IT,"64036","Cellino Attanasio","Abruzzi","AB","Teramo","TE","","","42.5857","13.8605","4",Italy
IT,"64037","Poggio Delle Rose","Abruzzi","AB","Teramo","TE","","","42.5916","13.7959","3",Italy
IT,"64037","Cermignano","Abruzzi","AB","Teramo","TE","","","42.5916","13.7959","4",Italy
IT,"64037","Montegualtieri","Abruzzi","AB","Teramo","TE","","","42.5916","13.7959","3",Italy
IT,"64039","Penna Sant'Andrea","Abruzzi","AB","Teramo","TE","","","42.5934","13.7722","4",Italy
IT,"64039","Val Vomano","Abruzzi","AB","Teramo","TE","","","42.5934","13.7722","3",Italy
IT,"64040","Pagliaroli","Abruzzi","AB","Teramo","TE","","","42.6333","13.5333","4",Italy
IT,"64040","Cortino","Abruzzi","AB","Teramo","TE","","","42.6333","13.5423","4",Italy
IT,"64040","Padula","Abruzzi","AB","Teramo","TE","","","42.6333","13.5378","3",Italy
IT,"64041","Castelli","Abruzzi","AB","Teramo","TE","","","42.4879","13.7117","4",Italy
IT,"64041","Colledoro","Abruzzi","AB","Teramo","TE","","","42.5167","13.7167","4",Italy
IT,"64042","Villa Petto","Abruzzi","AB","Teramo","TE","","","42.537","13.6645","3",Italy
IT,"64042","Colledara","Abruzzi","AB","Teramo","TE","","","42.5407","13.679","4",Italy
IT,"64042","Ornano Grande","Abruzzi","AB","Teramo","TE","","","42.5333","13.65","4",Italy
IT,"64043","Macchia Vomano","Abruzzi","AB","Teramo","TE","","","42.5667","13.5","4",Italy
IT,"64043","San Giorgio","Abruzzi","AB","Teramo","TE","","","42.5833","13.5167","4",Italy
IT,"64043","Tottea","Abruzzi","AB","Teramo","TE","","","42.55","13.45","4",Italy
IT,"64043","Cesacastina","Abruzzi","AB","Teramo","TE","","","42.5833","13.45","4",Italy
IT,"64043","Poggio Umbricchio","Abruzzi","AB","Teramo","TE","","","42.55","13.5333","4",Italy
IT,"64043","San Giorgio Di Crognaleto","Abruzzi","AB","Teramo","TE","","","42.5833","13.5167","4",Italy
IT,"64043","Cervaro","Abruzzi","AB","Teramo","TE","","","42.5667","13.4667","4",Italy
IT,"64043","Crognaleto","Abruzzi","AB","Teramo","TE","","","42.5879","13.4896","4",Italy
IT,"64043","Nerito","Abruzzi","AB","Teramo","TE","","","42.5476","13.4776","4",Italy
IT,"64044","Fano Adriano","Abruzzi","AB","Teramo","TE","","","42.553","13.5359","4",Italy
IT,"64044","Cerqueto","Abruzzi","AB","Teramo","TE","","","42.55","13.55","4",Italy
IT,"64045","Isola Del Gran Sasso D'Italia","Abruzzi","AB","Teramo","TE","","","42.5032","13.6572","4",Italy
IT,"64045","Cerchiara","Abruzzi","AB","Teramo","TE","","","42.5","13.6167","4",Italy
IT,"64045","San Gabriele Dell'Addolorata","Abruzzi","AB","Teramo","TE","","","42.5008","13.6226","3",Italy
IT,"64045","Forca Di Valle","Abruzzi","AB","Teramo","TE","","","42.5167","13.6167","4",Italy
IT,"64045","Fano A Corno","Abruzzi","AB","Teramo","TE","","","42.4833","13.6","4",Italy
IT,"64046","Cusciano","Abruzzi","AB","Teramo","TE","","","42.5667","13.5833","4",Italy
IT,"64046","Montorio Al Vomano","Abruzzi","AB","Teramo","TE","","","42.5831","13.6383","4",Italy
IT,"64046","Collevecchio Di Montorio","Abruzzi","AB","Teramo","TE","","","42.5833","13.65","4",Italy
IT,"64046","Leognano","Abruzzi","AB","Teramo","TE","","","42.5833","13.6667","4",Italy
IT,"64047","Intermesoli","Abruzzi","AB","Teramo","TE","","","42.5333","13.5333","4",Italy
IT,"64047","Pietracamela","Abruzzi","AB","Teramo","TE","","","42.5235","13.5554","4",Italy
IT,"64049","Tossicia","Abruzzi","AB","Teramo","TE","","","42.5449","13.6475","4",Italy
IT,"64049","Chiarino","Abruzzi","AB","Teramo","TE","","","42.5449","13.6475","3",Italy
IT,"64049","Azzinano","Abruzzi","AB","Teramo","TE","","","42.5449","13.6475","3",Italy
IT,"64100","Sant'Atto","Abruzzi","AB","Teramo","TE","","","42.612","13.6458","3",Italy
IT,"64100","Miano","Abruzzi","AB","Teramo","TE","","","42.6167","13.7","4",Italy
IT,"64100","Varano","Abruzzi","AB","Teramo","TE","","","42.6167","13.6","4",Italy
IT,"64100","Colle Santa Maria","Abruzzi","AB","Teramo","TE","","","42.612","13.6458","3",Italy
IT,"64100","Villa Vomano","Abruzzi","AB","Teramo","TE","","","42.6167","13.7667","4",Italy
IT,"64100","Cartecchio","Abruzzi","AB","Teramo","TE","","","42.612","13.6458","3",Italy
IT,"64100","Frondarola","Abruzzi","AB","Teramo","TE","","","42.6167","13.6333","4",Italy
IT,"64100","Valle San Giovanni","Abruzzi","AB","Teramo","TE","","","42.6167","13.6","4",Italy
IT,"64100","Colleminuccio","Abruzzi","AB","Teramo","TE","","","42.6833","13.7","4",Italy
IT,"64100","Castagneto","Abruzzi","AB","Teramo","TE","","","42.6667","13.6333","4",Italy
IT,"64100","Spiano","Abruzzi","AB","Teramo","TE","","","42.6","13.65","4",Italy
IT,"64100","Colleatterrato Alto","Abruzzi","AB","Teramo","TE","","","42.612","13.6458","3",Italy
IT,"64100","Piano D'Accio","Abruzzi","AB","Teramo","TE","","","42.612","13.6458","3",Italy
IT,"64100","Teramo","Abruzzi","AB","Teramo","TE","","","42.6612","13.699","4",Italy
IT,"64100","Nepezzano","Abruzzi","AB","Teramo","TE","","","42.6833","13.75","4",Italy
IT,"64100","Villa Ripa","Abruzzi","AB","Teramo","TE","","","42.612","13.6458","3",Italy
IT,"64100","Forcella","Abruzzi","AB","Teramo","TE","","","42.3167","13.25","4",Italy
IT,"64100","Tordinia","Abruzzi","AB","Teramo","TE","","","42.612","13.6458","3",Italy
IT,"64100","San Nicolo' A Tordino","Abruzzi","AB","Teramo","TE","","","42.612","13.6458","3",Italy
IT,"64100","Poggio San Vittorino","Abruzzi","AB","Teramo","TE","","","42.65","13.7667","4",Italy
IT,"75010","Craco","Basilicata","BC","Matera","MT","","","40.3799","16.4371","4",Italy
IT,"75010","Cirigliano","Basilicata","BC","Matera","MT","","","40.3944","16.1726","4",Italy
IT,"75010","Pisticci Scalo","Basilicata","BC","Matera","MT","","","40.481","16.2719","3",Italy
IT,"75010","Grottole","Basilicata","BC","Matera","MT","","","40.601","16.3793","4",Italy
IT,"75010","Aliano","Basilicata","BC","Matera","MT","","","40.3131","16.2311","4",Italy
IT,"75010","Miglionico","Basilicata","BC","Matera","MT","","","40.5684","16.5025","4",Italy
IT,"75010","San Mauro Forte","Basilicata","BC","Matera","MT","","","40.4871","16.2481","4",Italy
IT,"75010","Peschiera","Basilicata","BC","Matera","MT","","","40.481","16.2719","3",Italy
IT,"75010","Gorgoglione","Basilicata","BC","Matera","MT","","","40.3944","16.1446","4",Italy
IT,"75010","Garaguso","Basilicata","BC","Matera","MT","","","40.5484","16.2272","4",Italy
IT,"75010","Calciano","Basilicata","BC","Matera","MT","","","40.588","16.1924","4",Italy
IT,"75010","Oliveto Lucano","Basilicata","BC","Matera","MT","","","40.5353","16.1846","4",Italy
IT,"75011","Accettura","Basilicata","BC","Matera","MT","","","40.491","16.158","4",Italy
IT,"75012","Metaponto","Basilicata","BC","Matera","MT","","","40.3733","16.8076","4",Italy
IT,"75012","Metaponto Lido","Basilicata","BC","Matera","MT","","","40.3931","16.7498","3",Italy
IT,"75012","Serra Marina","Basilicata","BC","Matera","MT","","","40.3931","16.7498","3",Italy
IT,"75012","Bernalda","Basilicata","BC","Matera","MT","","","40.4128","16.692","4",Italy
IT,"75013","Macchia","Basilicata","BC","Matera","MT","","","40.5012","16.4547","3",Italy
IT,"75013","Borgo Macchia","Basilicata","BC","Matera","MT","","","40.5012","16.4547","3",Italy
IT,"75013","Ferrandina","Basilicata","BC","Matera","MT","","","40.5012","16.4547","4",Italy
IT,"75014","Grassano","Basilicata","BC","Matera","MT","","","40.6346","16.2779","4",Italy
IT,"75015","Pisticci","Basilicata","BC","Matera","MT","","","40.3906","16.5568","4",Italy
IT,"75016","Pomarico","Basilicata","BC","Matera","MT","","","40.5178","16.5473","4",Italy
IT,"75017","Salandra","Basilicata","BC","Matera","MT","","","40.5275","16.3192","4",Italy
IT,"75018","Stigliano","Basilicata","BC","Matera","MT","","","40.4009","16.2311","4",Italy
IT,"75019","Tricarico","Basilicata","BC","Matera","MT","","","40.6176","16.1465","4",Italy
IT,"75019","Calle","Basilicata","BC","Matera","MT","","","40.6176","16.1465","3",Italy
IT,"75020","Nova Siri Scalo","Basilicata","BC","Matera","MT","","","40.2529","16.6439","3",Italy
IT,"75020","Nova Siri","Basilicata","BC","Matera","MT","","","40.1482","16.5389","4",Italy
IT,"75020","Nova Siri Stazione","Basilicata","BC","Matera","MT","","","40.2529","16.6439","3",Italy
IT,"75020","Scanzano Jonico","Basilicata","BC","Matera","MT","","","40.2498","16.6984","4",Italy
IT,"75020","Marconia","Basilicata","BC","Matera","MT","","","40.3635","16.6882","4",Italy
IT,"75020","Recoleta","Basilicata","BC","Matera","MT","","","40.25","16.65","4",Italy
IT,"75021","Colobraro","Basilicata","BC","Matera","MT","","","40.1873","16.425","4",Italy
IT,"75022","Irsina","Basilicata","BC","Matera","MT","","","40.7496","16.2358","4",Italy
IT,"75022","Taccone","Basilicata","BC","Matera","MT","","","40.7496","16.2358","3",Italy
IT,"75023","Montalbano Jonico","Basilicata","BC","Matera","MT","","","40.2879","16.5788","4",Italy
IT,"75024","Montescaglioso","Basilicata","BC","Matera","MT","","","40.5522","16.6669","4",Italy
IT,"75025","Policoro","Basilicata","BC","Matera","MT","","","40.2115","16.6726","4",Italy
IT,"75026","Rotondella","Basilicata","BC","Matera","MT","","","40.1713","16.5256","4",Italy
IT,"75027","San Giorgio Lucano","Basilicata","BC","Matera","MT","","","40.1119","16.388","4",Italy
IT,"75028","Tursi","Basilicata","BC","Matera","MT","","","40.2452","16.4697","4",Italy
IT,"75028","Gannano","Basilicata","BC","Matera","MT","","","40.2452","16.4697","3",Italy
IT,"75028","Caprarico","Basilicata","BC","Matera","MT","","","40.2452","16.4697","3",Italy
IT,"75029","Valsinni","Basilicata","BC","Matera","MT","","","40.1699","16.4435","4",Italy
IT,"75100","La Martella","Basilicata","BC","Matera","MT","","","40.6833","16.5333","4",Italy
IT,"75100","Matera","Basilicata","BC","Matera","MT","","","40.6685","16.6016","4",Italy
IT,"75100","Venusio","Basilicata","BC","Matera","MT","","","40.6759","16.5675","3",Italy
IT,"85010","Pietrapertosa","Basilicata","BC","Potenza","PZ","","","40.5181","16.0625","4",Italy
IT,"85010","Gallicchio","Basilicata","BC","Potenza","PZ","","","40.289","16.1391","4",Italy
IT,"85010","Armento","Basilicata","BC","Potenza","PZ","","","40.3077","16.065","4",Italy
IT,"85010","San Chirico Nuovo","Basilicata","BC","Potenza","PZ","","","40.6765","16.0791","4",Italy
IT,"85010","Campomaggiore","Basilicata","BC","Potenza","PZ","","","40.5686","16.0738","4",Italy
IT,"85010","Pantano","Basilicata","BC","Potenza","PZ","","","40.5328","15.996","3",Italy
IT,"85010","Banzi","Basilicata","BC","Potenza","PZ","","","40.8606","16.013","4",Italy
IT,"85010","Albano Di Lucania","Basilicata","BC","Potenza","PZ","","","40.5846","16.0362","4",Italy
IT,"85010","Vaglio Basilicata","Basilicata","BC","Potenza","PZ","","","40.6675","15.918","4",Italy
IT,"85010","Abriola","Basilicata","BC","Potenza","PZ","","","40.508","15.8136","4",Italy
IT,"85010","Anzi","Basilicata","BC","Potenza","PZ","","","40.5166","15.9246","4",Italy
IT,"85010","Castelmezzano","Basilicata","BC","Potenza","PZ","","","40.5288","16.0456","4",Italy
IT,"85010","Madonna Del Pantano","Basilicata","BC","Potenza","PZ","","","40.5328","15.996","3",Italy
IT,"85010","Calvello","Basilicata","BC","Potenza","PZ","","","40.476","15.8486","4",Italy
IT,"85010","Missanello","Basilicata","BC","Potenza","PZ","","","40.282","16.166","4",Italy
IT,"85010","Pignola","Basilicata","BC","Potenza","PZ","","","40.5731","15.7832","4",Italy
IT,"85010","Brindisi Montagna","Basilicata","BC","Potenza","PZ","","","40.6095","15.9398","4",Italy
IT,"85010","Cancellara","Basilicata","BC","Potenza","PZ","","","40.7302","15.9258","4",Italy
IT,"85010","Rifreddo","Basilicata","BC","Potenza","PZ","","","40.5328","15.996","3",Italy
IT,"85010","Guardia Perticara","Basilicata","BC","Potenza","PZ","","","40.3605","16.0989","4",Italy
IT,"85011","Acerenza","Basilicata","BC","Potenza","PZ","","","40.7921","15.9366","4",Italy
IT,"85012","Corleto Perticara","Basilicata","BC","Potenza","PZ","","","40.3835","16.0407","4",Italy
IT,"85013","Genzano Di Lucania","Basilicata","BC","Potenza","PZ","","","40.8479","16.0308","4",Italy
IT,"85014","Laurenzana","Basilicata","BC","Potenza","PZ","","","40.4605","15.971","4",Italy
IT,"85015","Oppido Lucano","Basilicata","BC","Potenza","PZ","","","40.6443","15.8086","4",Italy
IT,"85016","Pietragalla","Basilicata","BC","Potenza","PZ","","","40.7468","15.8794","4",Italy
IT,"85017","Tolve","Basilicata","BC","Potenza","PZ","","","40.6942","16.0163","4",Italy
IT,"85018","Trivigno","Basilicata","BC","Potenza","PZ","","","40.581","15.9899","4",Italy
IT,"85020","Sant'Ilario","Basilicata","BC","Potenza","PZ","","","40.8","15.6667","4",Italy
IT,"85020","San Giorgio Di Pietragalla","Basilicata","BC","Potenza","PZ","","","40.7715","15.798","4",Italy
IT,"85020","Montemilone","Basilicata","BC","Potenza","PZ","","","41.03","15.9693","4",Italy
IT,"85020","Pescopagano","Basilicata","BC","Potenza","PZ","","","40.8356","15.3989","4",Italy
IT,"85020","Ginestra","Basilicata","BC","Potenza","PZ","","","40.9298","15.7346","4",Italy
IT,"85020","Rapone","Basilicata","BC","Potenza","PZ","","","40.8467","15.5012","4",Italy
IT,"85020","Sant'Angelo Di Avigliano","Basilicata","BC","Potenza","PZ","","","40.7981","15.7103","3",Italy
IT,"85020","Ruvo Del Monte","Basilicata","BC","Potenza","PZ","","","40.8488","15.5414","4",Italy
IT,"85020","Sterpito Di Sotto","Basilicata","BC","Potenza","PZ","","","40.7981","15.7103","3",Italy
IT,"85020","Possidente","Basilicata","BC","Potenza","PZ","","","40.7981","15.7103","3",Italy
IT,"85020","Piano Del Conte","Basilicata","BC","Potenza","PZ","","","40.7981","15.7103","3",Italy
IT,"85020","Sant'Andrea","Basilicata","BC","Potenza","PZ","","","40.1907","16.1855","4",Italy
IT,"85020","San Fele","Basilicata","BC","Potenza","PZ","","","40.8172","15.5395","4",Italy
IT,"85020","Avigliano Scalo","Basilicata","BC","Potenza","PZ","","","40.7981","15.7103","3",Italy
IT,"85020","Piano San Nicola","Basilicata","BC","Potenza","PZ","","","40.7981","15.7103","3",Italy
IT,"85020","Castel Lagopesole","Basilicata","BC","Potenza","PZ","","","40.8167","15.7333","4",Italy
IT,"85020","Dragonetti","Basilicata","BC","Potenza","PZ","","","40.8333","15.7167","4",Italy
IT,"85020","Maschito","Basilicata","BC","Potenza","PZ","","","40.9089","15.8295","4",Italy
IT,"85020","Sant'Angelo","Basilicata","BC","Potenza","PZ","","","40.5459","15.559","4",Italy
IT,"85020","Lagopesole","Basilicata","BC","Potenza","PZ","","","40.8167","15.7333","4",Italy
IT,"85020","Sterpito Di Sopra","Basilicata","BC","Potenza","PZ","","","40.7981","15.7103","3",Italy
IT,"85020","Sterpito","Basilicata","BC","Potenza","PZ","","","40.7981","15.7103","3",Italy
IT,"85020","Atella","Basilicata","BC","Potenza","PZ","","","40.8803","15.6502","4",Italy
IT,"85020","San Giorgio","Basilicata","BC","Potenza","PZ","","","40.7715","15.798","4",Italy
IT,"85020","San Nicola","Basilicata","BC","Potenza","PZ","","","40.7981","15.7103","3",Italy
IT,"85020","Ripacandida","Basilicata","BC","Potenza","PZ","","","40.9119","15.7248","4",Italy
IT,"85020","Scalera","Basilicata","BC","Potenza","PZ","","","40.7981","15.7103","3",Italy
IT,"85020","Filiano","Basilicata","BC","Potenza","PZ","","","40.8107","15.7062","4",Italy
IT,"85021","Avigliano","Basilicata","BC","Potenza","PZ","","","40.7329","15.72","4",Italy
IT,"85021","San Cataldo Di Bella","Basilicata","BC","Potenza","PZ","","","40.75","15.65","4",Italy
IT,"85021","San Cataldo","Basilicata","BC","Potenza","PZ","","","40.75","15.65","4",Italy
IT,"85022","Barile","Basilicata","BC","Potenza","PZ","","","40.9463","15.6727","4",Italy
IT,"85023","Forenza","Basilicata","BC","Potenza","PZ","","","40.8604","15.8546","4",Italy
IT,"85024","Gaudiano","Basilicata","BC","Potenza","PZ","","","41.1","15.9","4",Italy
IT,"85024","Lavello","Basilicata","BC","Potenza","PZ","","","41.0456","15.7908","4",Italy
IT,"85025","Foggiano","Basilicata","BC","Potenza","PZ","","","40.9965","15.6514","3",Italy
IT,"85025","Leonessa Di Melfi","Basilicata","BC","Potenza","PZ","","","40.9965","15.6514","3",Italy
IT,"85025","Melfi","Basilicata","BC","Potenza","PZ","","","40.9965","15.6514","4",Italy
IT,"85026","Palazzo San Gervasio","Basilicata","BC","Potenza","PZ","","","40.9313","15.9808","4",Italy
IT,"85027","Rapolla","Basilicata","BC","Potenza","PZ","","","40.9757","15.6713","4",Italy
IT,"85028","Rionero In Vulture","Basilicata","BC","Potenza","PZ","","","40.9257","15.67","4",Italy
IT,"85028","Monticchio","Basilicata","BC","Potenza","PZ","","","40.95","15.5833","4",Italy
IT,"85028","Monticchio Bagni","Basilicata","BC","Potenza","PZ","","","40.9379","15.6266","3",Italy
IT,"85029","Venosa","Basilicata","BC","Potenza","PZ","","","40.9613","15.8149","4",Italy
IT,"85030","Calvera","Basilicata","BC","Potenza","PZ","","","40.1495","16.1439","4",Italy
IT,"85030","Mezzana","Basilicata","BC","Potenza","PZ","","","39.9667","16.1667","4",Italy
IT,"85030","Castronuovo Di Sant'Andrea","Basilicata","BC","Potenza","PZ","","","40.1907","16.1855","4",Italy
IT,"85030","San Severino Lucano","Basilicata","BC","Potenza","PZ","","","40.0206","16.1379","4",Italy
IT,"85030","San Chirico Raparo","Basilicata","BC","Potenza","PZ","","","40.192","16.0772","4",Italy
IT,"85030","Terranova Di Pollino","Basilicata","BC","Potenza","PZ","","","39.9781","16.2963","4",Italy
IT,"85030","Cersosimo","Basilicata","BC","Potenza","PZ","","","40.047","16.3494","4",Italy
IT,"85030","San Martino D'Agri","Basilicata","BC","Potenza","PZ","","","40.2397","16.0531","4",Italy
IT,"85030","Villaneto","Basilicata","BC","Potenza","PZ","","","40.05","16.2","4",Italy
IT,"85030","San Costantino Albanese","Basilicata","BC","Potenza","PZ","","","40.0358","16.3047","4",Italy
IT,"85030","Carbone","Basilicata","BC","Potenza","PZ","","","40.1424","16.0894","4",Italy
IT,"85030","San Paolo Albanese","Basilicata","BC","Potenza","PZ","","","40.0367","16.3346","4",Italy
IT,"85030","Mezzana Salice","Basilicata","BC","Potenza","PZ","","","40.0874","16.1949","3",Italy
IT,"85030","Casa Del Conte","Basilicata","BC","Potenza","PZ","","","40.0874","16.1949","3",Italy
IT,"85031","Frusci","Basilicata","BC","Potenza","PZ","","","40.1637","15.9919","3",Italy
IT,"85031","Miraldo","Basilicata","BC","Potenza","PZ","","","40.1637","15.9919","3",Italy
IT,"85031","Castelsaraceno","Basilicata","BC","Potenza","PZ","","","40.1637","15.9919","4",Italy
IT,"85032","Teana","Basilicata","BC","Potenza","PZ","","","40.1248","16.1518","4",Italy
IT,"85032","Chiaromonte","Basilicata","BC","Potenza","PZ","","","40.1239","16.2148","4",Italy
IT,"85033","Episcopia","Basilicata","BC","Potenza","PZ","","","40.0748","16.0982","4",Italy
IT,"85034","Fardella","Basilicata","BC","Potenza","PZ","","","40.1138","16.1698","4",Italy
IT,"85034","Francavilla In Sinni","Basilicata","BC","Potenza","PZ","","","40.0791","16.2033","4",Italy
IT,"85035","Noepoli","Basilicata","BC","Potenza","PZ","","","40.0868","16.3297","4",Italy
IT,"85036","Roccanova","Basilicata","BC","Potenza","PZ","","","40.212","16.2032","4",Italy
IT,"85037","Sant'Arcangelo","Basilicata","BC","Potenza","PZ","","","40.2473","16.2712","4",Italy
IT,"85037","San Brancato","Basilicata","BC","Potenza","PZ","","","40.2473","16.2712","3",Italy
IT,"85038","Senise","Basilicata","BC","Potenza","PZ","","","40.1471","16.2889","4",Italy
IT,"85039","Spinoso","Basilicata","BC","Potenza","PZ","","","40.2692","15.9666","4",Italy
IT,"85040","San Costantino Di Rivello","Basilicata","BC","Potenza","PZ","","","40.0833","15.6833","4",Italy
IT,"85040","Viggianello","Basilicata","BC","Potenza","PZ","","","39.9738","16.0861","4",Italy
IT,"85040","Castelluccio Inferiore","Basilicata","BC","Potenza","PZ","","","40.0039","15.9809","4",Italy
IT,"85040","Nemoli","Basilicata","BC","Potenza","PZ","","","40.0675","15.8003","4",Italy
IT,"85040","Castelluccio Superiore","Basilicata","BC","Potenza","PZ","","","40.0103","15.9751","4",Italy
IT,"85040","Rivello","Basilicata","BC","Potenza","PZ","","","40.078","15.7561","4",Italy
IT,"85040","San Costantino","Basilicata","BC","Potenza","PZ","","","40.0833","15.6833","4",Italy
IT,"85040","Pedali Di Viggianello","Basilicata","BC","Potenza","PZ","","","39.9833","16.05","4",Italy
IT,"85042","Lagonegro","Basilicata","BC","Potenza","PZ","","","40.1283","15.7615","4",Italy
IT,"85043","Agromonte","Basilicata","BC","Potenza","PZ","","","40.0699","16.0142","3",Italy
IT,"85043","Magnano","Basilicata","BC","Potenza","PZ","","","40.0699","16.0142","3",Italy
IT,"85043","Cerri","Basilicata","BC","Potenza","PZ","","","40.0699","16.0142","3",Italy
IT,"85043","Mileo","Basilicata","BC","Potenza","PZ","","","40.05","16.0167","4",Italy
IT,"85043","Latronico","Basilicata","BC","Potenza","PZ","","","40.0898","16.0118","4",Italy
IT,"85044","Lauria Superiore","Basilicata","BC","Potenza","PZ","","","40.0465","15.8358","3",Italy
IT,"85044","Lauria Inferiore","Basilicata","BC","Potenza","PZ","","","40.0465","15.8358","3",Italy
IT,"85044","Seluci","Basilicata","BC","Potenza","PZ","","","40.0465","15.8358","3",Italy
IT,"85044","Galdo Di Lauria","Basilicata","BC","Potenza","PZ","","","40.0465","15.8358","3",Italy
IT,"85044","Galdo","Basilicata","BC","Potenza","PZ","","","40.0465","15.8358","3",Italy
IT,"85044","Lauria","Basilicata","BC","Potenza","PZ","","","40.0465","15.8358","4",Italy
IT,"85044","Cogliandrino","Basilicata","BC","Potenza","PZ","","","40.0465","15.8358","3",Italy
IT,"85044","Pecorone","Basilicata","BC","Potenza","PZ","","","40.0465","15.8358","3",Italy
IT,"85046","Maratea","Basilicata","BC","Potenza","PZ","","","39.9967","15.7224","4",Italy
IT,"85046","Fiumicello Santa Venere","Basilicata","BC","Potenza","PZ","","","39.9996","15.7076","3",Italy
IT,"85046","Maratea Porto","Basilicata","BC","Potenza","PZ","","","39.9833","15.7","4",Italy
IT,"85046","Acquafredda","Basilicata","BC","Potenza","PZ","","","40.0348","15.6746","4",Italy
IT,"85046","Massa","Basilicata","BC","Potenza","PZ","","","39.9833","15.7333","4",Italy
IT,"85047","Moliterno","Basilicata","BC","Potenza","PZ","","","40.2418","15.8635","4",Italy
IT,"85048","Rotonda","Basilicata","BC","Potenza","PZ","","","39.9527","16.0391","4",Italy
IT,"85049","Trecchina","Basilicata","BC","Potenza","PZ","","","40.0266","15.7747","4",Italy
IT,"85049","Piano Dei Peri","Basilicata","BC","Potenza","PZ","","","39.9833","15.7833","4",Italy
IT,"85050","Balvano","Basilicata","BC","Potenza","PZ","","","40.6503","15.5142","4",Italy
IT,"85050","Satriano Di Lucania","Basilicata","BC","Potenza","PZ","","","40.5439","15.6383","4",Italy
IT,"85050","Sant'Angelo Le Fratte","Basilicata","BC","Potenza","PZ","","","40.5459","15.559","4",Italy
IT,"85050","Sasso Di Castalda","Basilicata","BC","Potenza","PZ","","","40.4868","15.6774","4",Italy
IT,"85050","Castelgrande","Basilicata","BC","Potenza","PZ","","","40.7866","15.4302","4",Italy
IT,"85050","Savoia Di Lucania","Basilicata","BC","Potenza","PZ","","","40.5698","15.5526","4",Italy
IT,"85050","Villa D'Agri","Basilicata","BC","Potenza","PZ","","","40.5086","15.6618","3",Italy
IT,"85050","Tito Scalo","Basilicata","BC","Potenza","PZ","","","40.5086","15.6618","3",Italy
IT,"85050","Tito","Basilicata","BC","Potenza","PZ","","","40.5836","15.6755","4",Italy
IT,"85050","Baragiano Scalo","Basilicata","BC","Potenza","PZ","","","40.5086","15.6618","3",Italy
IT,"85050","Paterno","Basilicata","BC","Potenza","PZ","","","40.3783","15.7328","4",Italy
IT,"85050","Marsicovetere","Basilicata","BC","Potenza","PZ","","","40.3782","15.8253","4",Italy
IT,"85050","Sarconi","Basilicata","BC","Potenza","PZ","","","40.2485","15.8861","4",Italy
IT,"85050","Scalo Di Baragiano","Basilicata","BC","Potenza","PZ","","","40.5086","15.6618","3",Italy
IT,"85050","Baragiano","Basilicata","BC","Potenza","PZ","","","40.6793","15.5945","4",Italy
IT,"85050","Brienza","Basilicata","BC","Potenza","PZ","","","40.4775","15.6293","4",Italy
IT,"85050","Grumento Nova","Basilicata","BC","Potenza","PZ","","","40.2828","15.8888","4",Italy
IT,"85051","Sant'Antonio Casalini","Basilicata","BC","Potenza","PZ","","","40.7609","15.5406","3",Italy
IT,"85051","Bella","Basilicata","BC","Potenza","PZ","","","40.7609","15.5406","4",Italy
IT,"85052","Pergola","Basilicata","BC","Potenza","PZ","","","40.423","15.7349","3",Italy
IT,"85052","Marsico Nuovo","Basilicata","BC","Potenza","PZ","","","40.423","15.7349","4",Italy
IT,"85052","Galaino","Basilicata","BC","Potenza","PZ","","","40.423","15.7349","3",Italy
IT,"85053","Montemurro","Basilicata","BC","Potenza","PZ","","","40.2969","15.9913","4",Italy
IT,"85054","Muro Lucano","Basilicata","BC","Potenza","PZ","","","40.7525","15.4858","4",Italy
IT,"85054","Capo Di Giano","Basilicata","BC","Potenza","PZ","","","40.7525","15.4858","3",Italy
IT,"85055","Picerno","Basilicata","BC","Potenza","PZ","","","40.6403","15.6433","4",Italy
IT,"85056","Ruoti","Basilicata","BC","Potenza","PZ","","","40.718","15.679","4",Italy
IT,"85057","Tramutola","Basilicata","BC","Potenza","PZ","","","40.3166","15.7911","4",Italy
IT,"85058","Vietri Di Potenza","Basilicata","BC","Potenza","PZ","","","40.5997","15.508","4",Italy
IT,"85058","Mosileo","Basilicata","BC","Potenza","PZ","","","40.5997","15.508","3",Italy
IT,"85059","Viggiano","Basilicata","BC","Potenza","PZ","","","40.3407","15.9008","4",Italy
IT,"85100","Montocchio","Basilicata","BC","Potenza","PZ","","","40.6443","15.8086","3",Italy
IT,"85100","Giuliano","Basilicata","BC","Potenza","PZ","","","40.6443","15.8086","3",Italy
IT,"85100","Potenza","Basilicata","BC","Potenza","PZ","","","40.6443","15.8086","4",Italy
IT,"87010","Rota Greca","Calabria","CI","Cosenza","CS","","","39.4685","16.1126","4",Italy
IT,"87010","San Donato Di Ninea","Calabria","CI","Cosenza","CS","","","39.7116","16.0485","4",Italy
IT,"87010","San Martino Di Finita","Calabria","CI","Cosenza","CS","","","39.4906","16.1098","4",Italy
IT,"87010","Cervicati","Calabria","CI","Cosenza","CS","","","39.5425","16.1283","4",Italy
IT,"87010","San Basile","Calabria","CI","Cosenza","CS","","","39.8096","16.1633","4",Italy
IT,"87010","Acquaformosa","Calabria","CI","Cosenza","CS","","","39.7231","16.0899","4",Italy
IT,"87010","Sant'Agata Di Esaro","Calabria","CI","Cosenza","CS","","","39.6228","15.9838","4",Italy
IT,"87010","Regina","Calabria","CI","Cosenza","CS","","","39.45","16.1667","4",Italy
IT,"87010","Santa Maria Le Grotte","Calabria","CI","Cosenza","CS","","","39.4667","16.1333","4",Italy
IT,"87010","Saracena","Calabria","CI","Cosenza","CS","","","39.7788","16.1567","4",Italy
IT,"87010","Terranova Da Sibari","Calabria","CI","Cosenza","CS","","","39.6569","16.3395","4",Italy
IT,"87010","Mottafollone","Calabria","CI","Cosenza","CS","","","39.6487","16.0634","4",Italy
IT,"87010","Lattarico","Calabria","CI","Cosenza","CS","","","39.4499","16.1291","4",Italy
IT,"87010","Lungro","Calabria","CI","Cosenza","CS","","","39.7383","16.1246","4",Italy
IT,"87010","Santa Caterina Albanese","Calabria","CI","Cosenza","CS","","","39.5859","16.0704","4",Italy
IT,"87010","Frascineto","Calabria","CI","Cosenza","CS","","","39.8364","16.262","4",Italy
IT,"87010","Torano Castello Scalo","Calabria","CI","Cosenza","CS","","","39.6352","16.133","3",Italy
IT,"87010","Torano Castello","Calabria","CI","Cosenza","CS","","","39.5063","16.1456","4",Italy
IT,"87010","Policastrello","Calabria","CI","Cosenza","CS","","","39.6833","16.0333","4",Italy
IT,"87010","San Sosti","Calabria","CI","Cosenza","CS","","","39.659","16.0276","4",Italy
IT,"87010","Eianina","Calabria","CI","Cosenza","CS","","","39.8167","16.2667","4",Italy
IT,"87010","Firmo","Calabria","CI","Cosenza","CS","","","39.7214","16.1702","4",Italy
IT,"87010","Civita","Calabria","CI","Cosenza","CS","","","39.8288","16.3125","4",Italy
IT,"87010","Sartano","Calabria","CI","Cosenza","CS","","","39.5167","16.1667","4",Italy
IT,"87010","Malvito","Calabria","CI","Cosenza","CS","","","39.5997","16.0533","4",Italy
IT,"87010","Ioggi","Calabria","CI","Cosenza","CS","","","39.5667","16.0667","4",Italy
IT,"87011","Lattughelle","Calabria","CI","Cosenza","CS","","","39.7624","16.3629","3",Italy
IT,"87011","Cassano Allo Ionio","Calabria","CI","Cosenza","CS","","","39.783","16.3182","4",Italy
IT,"87011","Doria","Calabria","CI","Cosenza","CS","","","39.7333","16.35","4",Italy
IT,"87011","Pianoscafo","Calabria","CI","Cosenza","CS","","","39.7624","16.3629","3",Italy
IT,"87011","Lauropoli","Calabria","CI","Cosenza","CS","","","39.7833","16.3333","4",Italy
IT,"87011","Sibari","Calabria","CI","Cosenza","CS","","","39.75","16.45","4",Italy
IT,"87011","Sibari Stazione","Calabria","CI","Cosenza","CS","","","39.7624","16.3629","3",Italy
IT,"87012","Castrovillari","Calabria","CI","Cosenza","CS","","","39.8203","16.2123","4",Italy
IT,"87012","Vigne Di Castrovillari","Calabria","CI","Cosenza","CS","","","39.8203","16.2123","3",Italy
IT,"87013","Fagnano Castello","Calabria","CI","Cosenza","CS","","","39.5657","16.0537","4",Italy
IT,"87014","Laino Borgo","Calabria","CI","Cosenza","CS","","","39.9543","15.9735","4",Italy
IT,"87015","Laino Castello","Calabria","CI","Cosenza","CS","","","39.9363","15.9766","4",Italy
IT,"87016","Morano Calabro","Calabria","CI","Cosenza","CS","","","39.8398","16.1413","4",Italy
IT,"87017","Roggiano Gravina","Calabria","CI","Cosenza","CS","","","39.6182","16.1597","4",Italy
IT,"87018","San Marco Argentano Stazione","Calabria","CI","Cosenza","CS","","","39.5583","16.1201","3",Italy
IT,"87018","San Marco Roggiano Stazione","Calabria","CI","Cosenza","CS","","","39.5583","16.1201","3",Italy
IT,"87018","San Marco Argentano","Calabria","CI","Cosenza","CS","","","39.5583","16.1201","4",Italy
IT,"87019","Spezzano Albanese Stazione","Calabria","CI","Cosenza","CS","","","39.6688","16.3105","3",Italy
IT,"87019","Spezzano Albanese","Calabria","CI","Cosenza","CS","","","39.6688","16.3105","4",Italy
IT,"87019","Spezzano Albanese Terme","Calabria","CI","Cosenza","CS","","","39.6688","16.3105","3",Italy
IT,"87020","Acquappesa","Calabria","CI","Cosenza","CS","","","39.4937","15.9521","4",Italy
IT,"87020","Maiera'","Calabria","CI","Cosenza","CS","","","39.7218","15.8816","3",Italy
IT,"87020","Le Crete","Calabria","CI","Cosenza","CS","","","39.7218","15.8816","3",Italy
IT,"87020","Intavolata","Calabria","CI","Cosenza","CS","","","39.7218","15.8816","3",Italy
IT,"87020","Buonvicino","Calabria","CI","Cosenza","CS","","","39.686","15.8855","4",Italy
IT,"87020","Marcellina","Calabria","CI","Cosenza","CS","","","39.7218","15.8816","3",Italy
IT,"87020","Aieta","Calabria","CI","Cosenza","CS","","","39.9278","15.8235","4",Italy
IT,"87020","Marina Di Tortora","Calabria","CI","Cosenza","CS","","","39.7218","15.8816","3",Italy
IT,"87020","Granata","Calabria","CI","Cosenza","CS","","","39.7218","15.8816","3",Italy
IT,"87020","Papasidero","Calabria","CI","Cosenza","CS","","","39.8715","15.9079","4",Italy
IT,"87020","Santa Domenica Talao","Calabria","CI","Cosenza","CS","","","39.8195","15.8546","4",Italy
IT,"87020","Grisolia","Calabria","CI","Cosenza","CS","","","39.7245","15.8542","4",Italy
IT,"87020","Santa Maria Del Cedro","Calabria","CI","Cosenza","CS","","","39.7462","15.8364","4",Italy
IT,"87020","Tortora","Calabria","CI","Cosenza","CS","","","39.9413","15.8052","4",Italy
IT,"87020","Guardia Piemontese","Calabria","CI","Cosenza","CS","","","39.4662","15.9993","4",Italy
IT,"87020","Guardia Piemontese Terme","Calabria","CI","Cosenza","CS","","","39.7218","15.8816","3",Italy
IT,"87020","Acquappesa Marina","Calabria","CI","Cosenza","CS","","","39.7218","15.8816","3",Italy
IT,"87020","Tortora Marina","Calabria","CI","Cosenza","CS","","","39.7218","15.8816","3",Italy
IT,"87020","Sangineto Lido","Calabria","CI","Cosenza","CS","","","39.7218","15.8816","3",Italy
IT,"87020","Guardia Piemontese Marina","Calabria","CI","Cosenza","CS","","","39.7218","15.8816","3",Italy
IT,"87020","Verbicaro","Calabria","CI","Cosenza","CS","","","39.7556","15.9136","4",Italy
IT,"87020","Cittadella Del Capo","Calabria","CI","Cosenza","CS","","","39.5593","15.876","4",Italy
IT,"87020","Bonifati","Calabria","CI","Cosenza","CS","","","39.5853","15.9003","4",Italy
IT,"87020","San Nicola Arcella","Calabria","CI","Cosenza","CS","","","39.8459","15.7934","4",Italy
IT,"87020","Orsomarso","Calabria","CI","Cosenza","CS","","","39.7991","15.9075","4",Italy
IT,"87020","Torrevecchia","Calabria","CI","Cosenza","CS","","","39.7218","15.8816","3",Italy
IT,"87020","Sangineto","Calabria","CI","Cosenza","CS","","","39.6048","15.9149","4",Italy
IT,"87021","Laise","Calabria","CI","Cosenza","CS","","","39.6179","15.8617","3",Italy
IT,"87021","Belvedere Marittimo","Calabria","CI","Cosenza","CS","","","39.6179","15.8617","4",Italy
IT,"87021","Marina Di Belvedere Marittimo","Calabria","CI","Cosenza","CS","","","39.6179","15.8617","4",Italy
IT,"87022","Sant'Angelo Di Cetraro","Calabria","CI","Cosenza","CS","","","39.55","15.95","4",Italy
IT,"87022","Cetraro","Calabria","CI","Cosenza","CS","","","39.5166","15.9416","4",Italy
IT,"87022","Sant'Angelo","Calabria","CI","Cosenza","CS","","","39.55","15.95","4",Italy
IT,"87022","Battendieri","Calabria","CI","Cosenza","CS","","","39.5389","15.9472","3",Italy
IT,"87022","San Filippo","Calabria","CI","Cosenza","CS","","","39.5389","15.9472","3",Italy
IT,"87022","Cetraro Marina","Calabria","CI","Cosenza","CS","","","39.5389","15.9472","3",Italy
IT,"87023","Diamante","Calabria","CI","Cosenza","CS","","","39.676","15.8249","4",Italy
IT,"87023","Cirella","Calabria","CI","Cosenza","CS","","","39.7167","15.8167","4",Italy
IT,"87024","Marina Di Fuscaldo","Calabria","CI","Cosenza","CS","","","39.4167","16.0167","4",Italy
IT,"87024","Cariglio","Calabria","CI","Cosenza","CS","","","39.4167","16.0167","4",Italy
IT,"87024","Scarcelli","Calabria","CI","Cosenza","CS","","","39.4","16.0167","4",Italy
IT,"87024","Fuscaldo","Calabria","CI","Cosenza","CS","","","39.4143","16.0298","4",Italy
IT,"87026","Mormanno","Calabria","CI","Cosenza","CS","","","39.8883","15.9868","4",Italy
IT,"87027","San Miceli","Calabria","CI","Cosenza","CS","","","39.3599","16.0396","3",Italy
IT,"87027","Paola Santuario","Calabria","CI","Cosenza","CS","","","39.3599","16.0396","3",Italy
IT,"87027","Paola Marina","Calabria","CI","Cosenza","CS","","","39.3599","16.0396","3",Italy
IT,"87027","Santuario San Francesco","Calabria","CI","Cosenza","CS","","","39.3599","16.0396","3",Italy
IT,"87027","Paola","Calabria","CI","Cosenza","CS","","","39.3599","16.0396","4",Italy
IT,"87027","Fosse","Calabria","CI","Cosenza","CS","","","39.3599","16.0396","3",Italy
IT,"87028","Praia A Mare","Calabria","CI","Cosenza","CS","","","39.9009","15.7793","4",Italy
IT,"87029","Scalea","Calabria","CI","Cosenza","CS","","","39.813","15.7956","4",Italy
IT,"87030","Stazione Di Fiumefreddo Bruzio","Calabria","CI","Cosenza","CS","","","39.1827","16.1536","3",Italy
IT,"87030","Savuto","Calabria","CI","Cosenza","CS","","","39.0667","16.1667","4",Italy
IT,"87030","Reggio","Calabria","CI","Cosenza","CS","","","39.1827","16.1536","3",Italy
IT,"87030","San Vincenzo La Costa","Calabria","CI","Cosenza","CS","","","39.3652","16.1517","4",Italy
IT,"87030","Belsito","Calabria","CI","Cosenza","CS","","","39.1772","16.2883","4",Italy
IT,"87030","Longobardi Marina","Calabria","CI","Cosenza","CS","","","39.1827","16.1536","3",Italy
IT,"87030","Serra D'Aiello","Calabria","CI","Cosenza","CS","","","39.0903","16.1275","4",Italy
IT,"87030","Falconara Albanese","Calabria","CI","Cosenza","CS","","","39.2759","16.0918","4",Italy
IT,"87030","Cleto","Calabria","CI","Cosenza","CS","","","39.0902","16.1584","4",Italy
IT,"87030","San Pietro In Amantea","Calabria","CI","Cosenza","CS","","","39.1364","16.1116","4",Italy
IT,"87030","Vadue","Calabria","CI","Cosenza","CS","","","39.1827","16.1536","3",Italy
IT,"87030","Fiumefreddo Bruzio","Calabria","CI","Cosenza","CS","","","39.2344","16.0696","4",Italy
IT,"87030","Carolei","Calabria","CI","Cosenza","CS","","","39.2563","16.2201","4",Italy
IT,"87030","Marina Di Fiumefreddo Bruzio","Calabria","CI","Cosenza","CS","","","39.1827","16.1536","3",Italy
IT,"87030","Torremezzo","Calabria","CI","Cosenza","CS","","","39.1827","16.1536","3",Italy
IT,"87030","San Biase","Calabria","CI","Cosenza","CS","","","39.2167","16.0667","4",Italy
IT,"87030","Gesuiti","Calabria","CI","Cosenza","CS","","","39.1827","16.1536","3",Italy
IT,"87030","Savuto Di Cleto","Calabria","CI","Cosenza","CS","","","39.0667","16.1667","4",Italy
IT,"87030","Domanico","Calabria","CI","Cosenza","CS","","","39.2197","16.2061","4",Italy
IT,"87030","Torremezzo Di Falconara","Calabria","CI","Cosenza","CS","","","39.1827","16.1536","3",Italy
IT,"87030","Malito","Calabria","CI","Cosenza","CS","","","39.155","16.2486","4",Italy
IT,"87030","Scornavacca","Calabria","CI","Cosenza","CS","","","39.1827","16.1536","3",Italy
IT,"87030","Longobardi","Calabria","CI","Cosenza","CS","","","39.2071","16.0765","4",Italy
IT,"87031","Aiello Calabro","Calabria","CI","Cosenza","CS","","","39.1176","16.1667","4",Italy
IT,"87032","Amantea","Calabria","CI","Cosenza","CS","","","39.1332","16.0746","4",Italy
IT,"87032","Corica","Calabria","CI","Cosenza","CS","","","39.1006","16.0851","3",Italy
IT,"87032","Campora San Giovanni","Calabria","CI","Cosenza","CS","","","39.068","16.0957","4",Italy
IT,"87032","Amantea Marina","Calabria","CI","Cosenza","CS","","","39.1006","16.0851","3",Italy
IT,"87033","Belmonte Calabro Marina","Calabria","CI","Cosenza","CS","","","39.1562","16.0931","3",Italy
IT,"87033","Vadi","Calabria","CI","Cosenza","CS","","","39.15","16.1","4",Italy
IT,"87033","Belmonte Calabro","Calabria","CI","Cosenza","CS","","","39.1624","16.0863","4",Italy
IT,"87034","Grimaldi","Calabria","CI","Cosenza","CS","","","39.142","16.2357","4",Italy
IT,"87035","Lago","Calabria","CI","Cosenza","CS","","","39.1694","16.1506","4",Italy
IT,"87035","Aria Di Lupi","Calabria","CI","Cosenza","CS","","","39.1514","16.1336","3",Italy
IT,"87035","Greci","Calabria","CI","Cosenza","CS","","","39.1514","16.1336","3",Italy
IT,"87035","Terrati","Calabria","CI","Cosenza","CS","","","39.1333","16.1167","4",Italy
IT,"87036","Commenda","Calabria","CI","Cosenza","CS","","","39.3393","16.2107","3",Italy
IT,"87036","Castiglione Cosentino Stazione","Calabria","CI","Cosenza","CS","","","39.3393","16.2107","3",Italy
IT,"87036","Santo Stefano","Calabria","CI","Cosenza","CS","","","39.3393","16.2107","3",Italy
IT,"87036","Roges","Calabria","CI","Cosenza","CS","","","39.3393","16.2107","3",Italy
IT,"87036","Surdo","Calabria","CI","Cosenza","CS","","","39.3167","16.2","4",Italy
IT,"87036","Quattromiglia","Calabria","CI","Cosenza","CS","","","39.35","16.25","4",Italy
IT,"87036","Rende","Calabria","CI","Cosenza","CS","","","39.332","16.1844","4",Italy
IT,"87036","Arcavacata","Calabria","CI","Cosenza","CS","","","39.3585","16.2084","4",Italy
IT,"87037","San Fili","Calabria","CI","Cosenza","CS","","","39.3389","16.1435","4",Italy
IT,"87037","Bucita","Calabria","CI","Cosenza","CS","","","39.3389","16.1435","3",Italy
IT,"87038","Pollella","Calabria","CI","Cosenza","CS","","","39.3089","16.0508","3",Italy
IT,"87038","San Lucido","Calabria","CI","Cosenza","CS","","","39.3089","16.0508","4",Italy
IT,"87040","Casal Di Basso","Calabria","CI","Cosenza","CS","","","39.3939","16.2321","3",Italy
IT,"87040","San Lorenzo Del Vallo","Calabria","CI","Cosenza","CS","","","39.6682","16.2974","4",Italy
IT,"87040","Timparello","Calabria","CI","Cosenza","CS","","","39.3939","16.2321","3",Italy
IT,"87040","Tivolille","Calabria","CI","Cosenza","CS","","","39.3939","16.2321","3",Italy
IT,"87040","Rose","Calabria","CI","Cosenza","CS","","","39.3985","16.2872","4",Italy
IT,"87040","Andreotta Di Castrolibero","Calabria","CI","Cosenza","CS","","","39.3939","16.2321","3",Italy
IT,"87040","Deposito Di Luzzi","Calabria","CI","Cosenza","CS","","","39.3939","16.2321","3",Italy
IT,"87040","Malavicina","Calabria","CI","Cosenza","CS","","","39.3939","16.2321","3",Italy
IT,"87040","Montalto Uffugo Scalo","Calabria","CI","Cosenza","CS","","","39.3939","16.2321","3",Italy
IT,"87040","Mendicino","Calabria","CI","Cosenza","CS","","","39.2636","16.196","4",Italy
IT,"87040","San Giacomo Di Cerzeto","Calabria","CI","Cosenza","CS","","","39.5","16.1","4",Italy
IT,"87040","Luzzi","Calabria","CI","Cosenza","CS","","","39.4461","16.2883","4",Italy
IT,"87040","Paterno Calabro","Calabria","CI","Cosenza","CS","","","39.2285","16.2649","4",Italy
IT,"87040","San Benedetto Ullano","Calabria","CI","Cosenza","CS","","","39.4271","16.1238","4",Italy
IT,"87040","Tarsia","Calabria","CI","Cosenza","CS","","","39.6209","16.2717","4",Italy
IT,"87040","Cavallerizzo","Calabria","CI","Cosenza","CS","","","39.3939","16.2321","3",Italy
IT,"87040","Mongrassano","Calabria","CI","Cosenza","CS","","","39.5269","16.1106","4",Italy
IT,"87040","Taverna Di Montalto Uffugo","Calabria","CI","Cosenza","CS","","","39.3939","16.2321","3",Italy
IT,"87040","Castrolibero","Calabria","CI","Cosenza","CS","","","39.3081","16.1944","4",Italy
IT,"87040","Marano Principato","Calabria","CI","Cosenza","CS","","","39.2996","16.1751","4",Italy
IT,"87040","Marano Marchesato","Calabria","CI","Cosenza","CS","","","39.316","16.1738","4",Italy
IT,"87040","Mongrassano Stazione","Calabria","CI","Cosenza","CS","","","39.3939","16.2321","3",Italy
IT,"87040","Andreotta","Calabria","CI","Cosenza","CS","","","39.3939","16.2321","3",Italy
IT,"87040","Maione","Calabria","CI","Cosenza","CS","","","39.3939","16.2321","3",Italy
IT,"87040","Stazione Di Mongrassano","Calabria","CI","Cosenza","CS","","","39.3939","16.2321","3",Italy
IT,"87040","Castiglione Cosentino","Calabria","CI","Cosenza","CS","","","39.352","16.2894","4",Italy
IT,"87040","Zumpano","Calabria","CI","Cosenza","CS","","","39.3109","16.2921","4",Italy
IT,"87040","Cerzeto","Calabria","CI","Cosenza","CS","","","39.5078","16.115","4",Italy
IT,"87040","San Giacomo D'Acri","Calabria","CI","Cosenza","CS","","","39.5167","16.4667","4",Italy
IT,"87040","Parenti","Calabria","CI","Cosenza","CS","","","39.1622","16.4105","4",Italy
IT,"87040","San Bartolo","Calabria","CI","Cosenza","CS","","","39.3939","16.2321","3",Italy
IT,"87040","Ortomatera","Calabria","CI","Cosenza","CS","","","39.3939","16.2321","3",Italy
IT,"87040","Rosario","Calabria","CI","Cosenza","CS","","","39.3939","16.2321","3",Italy
IT,"87040","San Giacomo","Calabria","CI","Cosenza","CS","","","39.5","16.1","4",Italy
IT,"87040","Timparello Di Luzzi","Calabria","CI","Cosenza","CS","","","39.3939","16.2321","3",Italy
IT,"87040","Altilia","Calabria","CI","Cosenza","CS","","","39.1305","16.2527","4",Italy
IT,"87041","Acri","Calabria","CI","Cosenza","CS","","","39.4929","16.3838","4",Italy
IT,"87041","Montagnola","Calabria","CI","Cosenza","CS","","","39.4929","16.3838","3",Italy
IT,"87041","Serricella","Calabria","CI","Cosenza","CS","","","39.4929","16.3838","3",Italy
IT,"87041","Duglia","Calabria","CI","Cosenza","CS","","","39.4929","16.3838","3",Italy
IT,"87042","Altomonte","Calabria","CI","Cosenza","CS","","","39.699","16.13","4",Italy
IT,"87043","Bisignano","Calabria","CI","Cosenza","CS","","","39.5059","16.2772","4",Italy
IT,"87044","Cerisano","Calabria","CI","Cosenza","CS","","","39.2761","16.1754","4",Italy
IT,"87045","Tessano","Calabria","CI","Cosenza","CS","","","39.2562","16.2412","4",Italy
IT,"87045","Dipignano","Calabria","CI","Cosenza","CS","","","39.2375","16.2531","4",Italy
IT,"87045","Laurignano","Calabria","CI","Cosenza","CS","","","39.2667","16.2333","4",Italy
